stop_id,stop_name,stop_lat,stop_lon
"7010B158131","Ulsterbus Depot, stop 158131","54.9966287583879","-7.31786633503889"
"7010B158241","Magee Campus, stop 158241","55.0044762847017","-7.32178170142125"
"7040B107131","Cullaville, stop 107131","54.0620448123764","-6.64352516920912"
"7040B139481","Newry, stop 139481","54.168253025688","-6.33909756269812"
"7040B139491","Buttercrane SC, stop 139491","54.1728714823827","-6.34099572245582"
"7040B139501","Newry, stop 139501","54.1728655758037","-6.3405670598802"
"7040B139761","Killeen Bridge","54.1310086398614","-6.3460816123408"
"7040B139771","Killeen Bridge, stop 139771","54.1310230855211","-6.3464788981469"
"7040B139781","Meigh Cross, stop 139781","54.1158843222541","-6.35728457153678"
"7040B150611","Monaghan Street, stop 150611","54.1768023042208","-6.34321285594718"
"7040B156051","Newry, stop 156051","54.1756160569666","-6.33995140976059"
"7040B156061","Newry Bus Station, stop 156061","54.1749986272442","-6.34014464532738"
"7050B108081","Enniskillen, stop 108081","54.3436944286414","-7.64007888696493"
"7050B140871","Derrylin, stop 140871","54.1933170593261","-7.56794116763394"
"7050B1409001","Bellanaleck, stop 140901","54.2950047241078","-7.63801510677571"
"7050B141541","Belleek, stop 141541","54.4761705959625","-8.09450198679982"
"7050B1415501","Bellanaleck, stop 141551","54.2950580826941","-7.63783030428048"
"7050B141561","Derrylin, stop 141561","54.1933796273313","-7.56784857395776"
"7050B630091","Letterbreen, stop 630091","54.3092870556651","-7.73268562828708"
"7050B630101","Letterbreen, stop 630101","54.3094925605696","-7.73216183422822"
"7050B6310001","Belcoo, stop 631001","54.2962165554274","-7.87179252976784"
"7060B152481","Sion Mills, stop 152481","54.7843117247034","-7.47163679760017"
"7060B156031","Ballygawley, stop 156031","54.4628248330626","-7.02865110924151"
"7060B157111","Newtownstewart, stop 157111","54.7218905194419","-7.3729818602422"
"7060B158031","Ulsterbus Depot, stop 158031","54.6016407291298","-7.30048124165794"
"7060B1581001","Newtownstewart, stop 158101","54.7217738838147","-7.37301470512106"
"7060B158121","Bradley Way, stop 158121","54.8265068781538","-7.47009002495234"
"7060B1581401","Sion Mills, stop 158141","54.7857793583293","-7.47234836164941"
"7060B158181","Canal Street, stop 158181","54.8277460618087","-7.46378639704705"
"8210B1340201","Hacketstown, stop 134021","52.8652215308508","-6.55839857023043"
"8210B136061","IT Carlow, stop 136061","52.8299811805233","-6.93597455431293"
"8210B1360701","Leighlinbridge Cross, stop 136071","52.7355314457858","-6.98709757456484"
"8210B136211","Rathvilly, stop 136211","52.8805507014164","-6.69556191940631"
"8210B136231","Hacketstown, stop 136231","52.8653749936501","-6.55845289325904"
"8210B153991","Páirc Mhuire, stop 153991","52.8048199890731","-6.73250639090106"
"8210B154001","Páirc Mhuire, stop 154001","52.8046580908346","-6.73249626766091"
"8210B3355701","Carlow Coach Park, stop 335571","52.8336084328527","-6.92655076386997"
"8210B339081","Seskin Road, stop 339081","52.7388720012347","-6.9856873204599"
"8210B3394301","Royal Oak Road, stop 339431","52.7037905997941","-6.98460691244031"
"8210B3511401","Rathvilly, stop 351141","52.8806191573753","-6.69524785426885"
"8210B3511801","Kildavin, stop 351181","52.6850443864323","-6.69071660531196"
"8210B351711","Ballon, stop 351711","52.7401879532427","-6.77039976288266"
"8210B351721","Ballon, stop 351721","52.7400872675208","-6.77022488071275"
"8210B5981201","Carlow IT, stop 598121","52.83005439964","-6.93612116551756"
"8220B1000401","Clare Street, stop 100041","53.3414338236789","-6.25156217809689"
"8220B100061","Donnybrook Stadium, stop 100061","53.3199226645572","-6.23309292920966"
"8220B100071","Donnybrook Stadium, stop 100071","53.320198589161","-6.23351684379234"
"8220B100111","Westland Row, stop 100111","53.3431816369596","-6.25000378893047"
"8220B1001201","Drumcondra Station, stop 100121","53.3630695608016","-6.25841467181004"
"8220B100131","Wilton Terrace, stop 100131","53.3323956657695","-6.25244240264137"
"8220B1001401","Whitehall, stop 100141","53.3832628572909","-6.24410591269657"
"8220B100351","Merrion Sq North, stop 100351","53.3409427335835","-6.24994529768871"
"8220B100411","Holles Street, stop 100411","53.3398433311807","-6.24730214770423"
"8220B100421","Merrion Street, stop 100421","53.3393673855399","-6.25223240916391"
"8220B100431","Beckett Bridge, stop 100431","53.3477795764955","-6.24239531201171"
"8220B100461","Merrion Road, stop 100461","53.3283555138816","-6.22837542799147"
"8220B1008501","Whitehall Garda Stn, stop 100851","53.3750927719076","-6.25084490058774"
"8220B1008601","Drumcondra Station, stop 100861","53.3622484073759","-6.25880877863172"
"8220B1008801","Whitworth Rd Lower, stop 100881","53.3619754108391","-6.26042763798583"
"8220B1008901","Bottom of the Hill, stop 100891","53.3862676078106","-6.29702226751655"
"8220B1009001","St Margaret's Road, stop 100901","53.4001982314947","-6.30834665852553"
"8220B1011301","North Road, stop 101131","53.4001465003621","-6.30786746825514"
"8220B1011401","Bottom of the Hill, stop 101141","53.3867460591644","-6.2971685440483"
"8220B1011501","Glasnevin, stop 101151","53.3699429330433","-6.27806175078414"
"8220B1012501","Kempton Avenue, stop 101251","53.3715231307724","-6.3298021053401"
"8220B101971","Custom House Quay, stop 101971","53.348070842091","-6.24691955913896"
"8220B1021101","Batchelors Walk, stop 102111","53.3468332708374","-6.26247115812946"
"8220B1021601","Fitzwilliam Place, stop 102161","53.3331746082329","-6.25407726314048"
"8220B1021701","Sussex Road, stop 102171","53.3297106861194","-6.24893374968249"
"8220B1021801","Donnybrook Church, stop 102181","53.3185971380125","-6.23098620998618"
"8220B1021901","RTE, stop 102191","53.3145175114673","-6.22440094329826"
"8220B1043301","Whitehall, stop 104331","53.3839299240584","-6.24362746185329"
"8220B1043501","Whitehall Garda Stn, stop 104351","53.3764271825814","-6.24990340378055"
"8220B1044901","St Peter's Church, stop 104491","53.3607634116462","-6.27662893147605"
"8220B1045001","Kempton Avenue, stop 104501","53.3715875372451","-6.33055102095511"
"8220B1045901","St Peter's Church, stop 104591","53.3608535465558","-6.27602429158865"
"8220B1046001","Mater Hospital, stop 104601","53.3596828024258","-6.26965602998248"
"8220B1046101","Merrion Row, stop 104611","53.3385331896367","-6.25480444135101"
"8220B1050001","College Street, stop 105001","53.3437835692223","-6.25920086271601"
"8220B1063801","RTE, stop 106381","53.314699735609","-6.22577420211834"
"8220B106401","Lesson Street Lower","53.3350196396912","-6.25608912424076"
"8220B106421","3Arena, stop 106421","53.3468793652799","-6.2289291585258"
"8220B10995","Heuston Station, stop 10995","53.3458575428206","-6.2938871484759"
"8220B111751","Walnut Rise, stop 111751","53.3601923329242","-6.27256522611864"
"8220B111761","Westland Row Church, stop 111761","53.3426262483916","-6.25013166583778"
"8220B111771","Irish Life, stop 111771","53.3491151352805","-6.25561891627049"
"8220B111781","Holles Street, stop 111781","53.3401450526898","-6.24765020084264"
"8220B123501","3Arena, stop 123501","53.3485294617751","-6.22686298017616"
"8220B123511","Convention Centre, stop 123511","53.3474610564409","-6.23968971942783"
"8220B123521","Jurys Hotel, stop 123521","53.3479814560861","-6.24695326829954"
"8220B123531","North Wall Quay, stop 123531","53.3479034788441","-6.24715173539026"
"8220B1262001","Harts Corner, stop 126201","53.3667962218707","-6.27240321889899"
"8220B134961","Dublin Busáras, stop 134961","53.3499127208211","-6.25238682003707"
"8220B1349701","Mountjoy Sq West, stop 134971","53.3563423559898","-6.25874910275863"
"8220B1349901","Parnell Square East, stop 134991","53.3536897591134","-6.26237252337879"
"8220B1350001","Busáras, stop 135001","53.3495807653085","-6.25181457561327"
"8220B1350201","DCU, stop 135021","53.3868888846355","-6.25663057318748"
"8220B1350301","Gardiner St Lower, stop 135031","53.3487549295222","-6.25495768638161"
"8220B1350501","O'Connel Street, stop 135051","53.3508391970006","-6.2604305249363"
"8220B1350801","Kildare Street, stop 135081","53.3401356511047","-6.25559501489228"
"8220B1351001","Wellington Quay, stop 135101","53.3458641751322","-6.26381729294167"
"8220B1351201","Connolly Station, stop 135121","53.3502180212944","-6.25052670165238"
"8220B1351401","George's Quay, stop 135141","53.34738269539","-6.25331643588362"
"8220B1352701","Custom House Quay, stop 135271","53.3483592044074","-6.25371211126525"
"8220B135301","Leeson St Lower, stop 135301","53.3354983593553","-6.2562497858689"
"8220B1353101","Wilton Terrace, stop 135311","53.3330493209056","-6.25043365506786"
"8220B1353201","Baggot St Lower, stop 135321","53.3364376609954","-6.24858307013004"
"8220B1353301","Dawson Street, stop 135331","53.3401343717174","-6.25858361137307"
"8220B1353501","Eden Quay, stop 135351","53.3477999659089","-6.25849647173377"
"8220B1354001","Heuston Station, stop 135401","53.3458581867817","-6.29393218197987"
"8220B135411","Wilton Terrace, stop 135411","53.332404208867","-6.25241202316956"
"8220B1354201","Heuston Station, stop 135421","53.3461966740882","-6.29246173926997"
"8220B1358201","Mater Hospital, stop 135821","53.3604291327296","-6.26843881916132"
"8220B1358401","D'Olier Street, stop 135841","53.3466729562441","-6.25825702932731"
"8220B136151","Pembroke Street Lwr, stop 136151","53.337175120479","-6.25167634065387"
"8220B136551","Grand Parade, stop 136551","53.3311450829341","-6.25235839578021"
"8220B3551501","Vincent's Hospital, stop 355151","53.3173579970625","-6.21598254819266"
"8220DB000002","Parnell Square West, stop 2","53.3522443611407","-6.26372321891882"
"8220DB000003","Parnell Square West, stop 3","53.3523085514349","-6.26381074216821"
"8220DB000004","Parnell Square West, stop 4","53.3525745131874","-6.26417548603793"
"8220DB000006","Parnell Square West, stop 6","53.352749335707","-6.26445380396429"
"8220DB000007","Parnell Square West, stop 7","53.3528409105808","-6.26457026121744"
"8220DB000008","Parnell Square West, stop 8","53.3532722714846","-6.26518367657395"
"8220DB000010","Parnell Square West, stop 10","53.3533921036497","-6.26538912389949"
"8220DB000011","St Joseph's Parade, stop 11","53.3568152335319","-6.26467919507521"
"8220DB000012","Upper Dorset Street, stop 12","53.3571075162046","-6.26438186733525"
"8220DB000014","Dorset Street Lower, stop 14","53.3585312378782","-6.26277650570866"
"8220DB000015","Innisfallen Parade, stop 15","53.3602667075989","-6.26097804267247"
"8220DB000016","Nephin Road Park, stop 16","53.3663915571432","-6.30561418352733"
"8220DB000017","Drumcondra Rail Stn, stop 17","53.3630783243804","-6.25839928847829"
"8220DB000018","Dargle Road, stop 18","53.3658559259191","-6.2559568206783"
"8220DB000019","Botanic Avenue, stop 19","53.3672348759349","-6.25559994097697"
"8220DB000021","DCU St Patrick's, stop 21","53.3701011992972","-6.25431059904437"
"8220DB000022","Home Farm Road, stop 22","53.3735036097431","-6.25280375269001"
"8220DB000023","Ferguson Road, stop 23","53.3742282800816","-6.25626100416695"
"8220DB000024","Walsh Road, stop 24","53.3751331588865","-6.26037234812314"
"8220DB000025","Rathlin Road, stop 25","53.3758994661498","-6.26361773641705"
"8220DB000027","Ballymun Road, stop 27","53.3794389600131","-6.26658526125999"
"8220DB000028","Hampstead Avenue, stop 28","53.3815786376305","-6.26600227077734"
"8220DB000029","Albert College Park, stop 29","53.3834882529482","-6.26566910125412"
"8220DB000030","Ventry Park, stop 30","53.3703319001951","-6.30460116922909"
"8220DB000031","St Pappin's Road, stop 31","53.3860332259168","-6.26885807727496"
"8220DB000032","Stormanstown Road, stop 32","53.3861955680761","-6.27137720104136"
"8220DB000033","Glasnevin Drive, stop 33","53.3887179243081","-6.27177114122446"
"8220DB000035","Dean Swift Road, stop 35","53.3862067871037","-6.27091069254095"
"8220DB000036","Maolbuille Road, stop 36","53.3861268504134","-6.26787706978334"
"8220DB000037","DCU Ballymun Road, stop 37","53.3853464011964","-6.2648869813179"
"8220DB000038","Hampstead Avenue, stop 38","53.3822365941661","-6.26550952120501"
"8220DB000039","The Rise, stop 39","53.3804141869347","-6.26565875906584"
"8220DB000040","Stella Avenue, stop 40","53.3766607654531","-6.2646689685279"
"8220DB000041","Home Farm Road, stop 41","53.3755592683283","-6.26185800624665"
"8220DB000042","Corpus Christi NS, stop 42","53.37465027346","-6.25746118972129"
"8220DB000043","Achill Road, stop 43","53.3738612202293","-6.25390131043387"
"8220DB000044","Skylon Hotel, stop 44","53.3730174091229","-6.25213230324291"
"8220DB000045","DCU St Patrick's, stop 45","53.3699364344031","-6.25410694084961"
"8220DB000046","Botanic Avenue, stop 46","53.3671310162176","-6.25525855655008"
"8220DB000047","Drumcondra Rail Stn, stop 47","53.3639161189952","-6.25729825652797"
"8220DB000048","Fitzroy Avenue, stop 48","53.3622573901253","-6.25880841233312"
"8220DB000049","Dorset Street Lower, stop 49","53.3600042378903","-6.26085350834049"
"8220DB000051","Temple Street, stop 51","53.3578104088118","-6.26327157246547"
"8220DB000052","Dorset Street Upper, stop 52","53.3566607792373","-6.26456528204094"
"8220DB000053","North Circular Road, stop 53","53.3600144884247","-6.26279128910748"
"8220DB000054","Mater Hospital, stop 54","53.3602216080572","-6.26590803396304"
"8220DB000055","Mountjoy, stop 55","53.3604116029257","-6.26846957982232"
"8220DB000056","Dalymount, stop 56","53.3607597246064","-6.27637365491405"
"8220DB000057","Dalymount, stop 57","53.3608162242942","-6.27655167484326"
"8220DB000058","Churchview Home, stop 58","53.3609462458936","-6.28120420246718"
"8220DB000059","Annamoe Terrace, stop 59","53.3610180101986","-6.28494256312823"
"8220DB000060","Quarry Road, stop 60","53.3612792196503","-6.28936450005441"
"8220DB000063","Faussaugh Avenue, stop 63","53.3667924372952","-6.29275010805849"
"8220DB000064","Faussaugh Ave Church, stop 64","53.3670885820688","-6.29523278220332"
"8220DB000065","Dingle Road, stop 65","53.3672546442408","-6.29805127641295"
"8220DB000066","Broombridge Road, stop 66","53.3672749883724","-6.30074034554988"
"8220DB000068","Ventry Drive, stop 68","53.3690775080481","-6.30424523466637"
"8220DB000069","Carnlough Road, stop 69","53.3713925640956","-6.30334171689521"
"8220DB000071","Ventry Park, stop 71","53.370257689331","-6.30443880530348"
"8220DB000072","Ventry Drive, stop 72","53.3689699260271","-6.30426453600159"
"8220DB000073","Faussagh Avenue, stop 73","53.3673915527279","-6.30072067865566"
"8220DB000074","Faussaugh Ave Church, stop 74","53.3672002385656","-6.29549881400774"
"8220DB000075","Fionnbarra GAA, stop 75","53.3665472298968","-6.2913173193679"
"8220DB000077","Quarry Road, stop 77","53.3613091819047","-6.28957365234684"
"8220DB000078","Annamoe Terrace, stop 78","53.3611492151928","-6.2840658352747"
"8220DB000079","Churchview Home, stop 79","53.3610212509784","-6.28079550562148"
"8220DB000080","Phibsborough PO, stop 80","53.3608629632753","-6.27605396152958"
"8220DB000081","Phibsborough, stop 81","53.3608757479082","-6.27196662691603"
"8220DB000082","Phibsborough, stop 82","53.3607977959179","-6.27154908016377"
"8220DB000083","Mater Hospital, stop 83","53.3602792498247","-6.26554509616271"
"8220DB000084","Leo Street, stop 84","53.3601625615987","-6.26370178059097"
"8220DB000085","Wellpark Avenue, stop 85","53.3739579526161","-6.25191342966416"
"8220DB000086","Home Farm FC, stop 86","53.3760502204615","-6.25116639066164"
"8220DB000087","Clare Road, stop 87","53.3767517255744","-6.25488028992455"
"8220DB000088","Walnut Rise, stop 88","53.3772872553016","-6.25769922864556"
"8220DB000090","Albert College Court, stop 90","53.3863855316762","-6.26526567275517"
"8220DB000091","Ballymun Road NS, stop 91","53.3884278896508","-6.26540814207678"
"8220DB000092","Ballymun Library, stop 92","53.3898373340536","-6.264674240361"
"8220DB000093","Gateway Avenue, stop 93","53.3923014677522","-6.26415297561009"
"8220DB000094","Civic Centre, stop 94","53.396034762414","-6.26437695995443"
"8220DB000102","Balbutcher Lane, stop 102","53.3977730701685","-6.26771985697008"
"8220DB000104","Poppintree Parade, stop 104","53.3997562075198","-6.27681294502523"
"8220DB000105","Belclare Park, stop 105","53.4029363966841","-6.28169269646944"
"8220DB000107","Crannogue Road, stop 107","53.4023798988012","-6.28049690990608"
"8220DB000110","Árd Na Meala, stop 110","53.3979386409638","-6.26860038147326"
"8220DB000112","Civic Centre, stop 112","53.3961544015487","-6.26395104030175"
"8220DB000113","Trinity Comp School, stop 113","53.3922679629287","-6.26370325464242"
"8220DB000114","Ballymun Road, stop 114","53.3913333220569","-6.26371122925232"
"8220DB000115","Ballymun Road Church, stop 115","53.3879640919895","-6.26503610048144"
"8220DB000117","Walnut Rise, stop 117","53.3773659067276","-6.25754570845521"
"8220DB000118","Clare Road, stop 118","53.3766430016933","-6.25359209857676"
"8220DB000119","The Village, stop 119","53.3751904807261","-6.25076574528229"
"8220DB000126","Nursing Home, stop 126","53.3990954666878","-6.2640869605604"
"8220DB000127","Nursing Home, stop 127","53.3991075304829","-6.26368042823967"
"8220DB000128","Glasnevin Avenue, stop 128","53.3892678697442","-6.26568972261112"
"8220DB000129","Glasnevin Drive, stop 129","53.3898903154498","-6.27142293606873"
"8220DB000130","Glasnevin Park, stop 130","53.390092012762","-6.27418126942501"
"8220DB000131","Willow Park Road, stop 131","53.3903858902648","-6.27834923697204"
"8220DB000132","Beneavin Park, stop 132","53.3905207424955","-6.28271912369816"
"8220DB000133","Grove Park Road, stop 133","53.3907969275903","-6.28630150947288"
"8220DB000134","Sycamore Road, stop 134","53.3930945913226","-6.28607386543557"
"8220DB000136","McKee Road, stop 136","53.3943802013917","-6.28985659650005"
"8220DB000137","Clancy Avenue, stop 137","53.3923167196326","-6.29263079481428"
"8220DB000138","St Canice's BNS, stop 138","53.3899950092694","-6.29180657264737"
"8220DB000139","Grove Park Road, stop 139","53.3906014624264","-6.28645971748868"
"8220DB000140","Beneavin Park, stop 140","53.3906344923664","-6.28250404674211"
"8220DB000141","Willow Park Road, stop 141","53.390445085094","-6.2780912446871"
"8220DB000142","Glasnevin Park, stop 142","53.3901982852644","-6.27407172195529"
"8220DB000143","Willow Park Avenue, stop 143","53.3898767084074","-6.26924336998015"
"8220DB000146","Na Fianna GAA Club, stop 146","53.3750401276344","-6.26509558567463"
"8220DB000147","Tolka Bridge, stop 147","53.372480226241","-6.2658308621236"
"8220DB000148","Mobhi Road, stop 148","53.3706701663492","-6.2680685070582"
"8220DB000149","Tolka Bridge, stop 149","53.3731385872581","-6.26598446613774"
"8220DB000150","Na Fianna GAA Club, stop 150","53.3756588461887","-6.26499528302818"
"8220DB000151","Botanic Gardens, stop 151","53.3719552600216","-6.2692938277115"
"8220DB000153","Met Eireann, stop 153","53.3756885056259","-6.27013443946291"
"8220DB000154","St Brigid's School, stop 154","53.3772589962536","-6.27555703718647"
"8220DB000155","Old Finglas Road, stop 155","53.3778742492892","-6.27957552717568"
"8220DB000156","Tolka Estate, stop 156","53.3786233900883","-6.28166473909488"
"8220DB000157","Glasilawn Road, stop 157","53.3804116224189","-6.28163782517761"
"8220DB000158","Griffith Road, stop 158","53.3814819498312","-6.28356395405034"
"8220DB000159","Griffith Parade, stop 159","53.3827837191596","-6.28283511246103"
"8220DB000164","Beneavin Road, stop 164","53.3884303639479","-6.28048792293041"
"8220DB000165","Beneavin Park, stop 165","53.3890348746741","-6.28377124881093"
"8220DB000166","Beneavin School, stop 166","53.3895835973705","-6.2863051485736"
"8220DB000167","Beneavin Road, stop 167","53.3901866021378","-6.28698758531702"
"8220DB000168","Beneavin Park, stop 168","53.3892599668895","-6.28442373469438"
"8220DB000169","Beneavin Court, stop 169","53.3884339346717","-6.28011190995849"
"8220DB000173","Glasnamana Place, stop 173","53.3821216123005","-6.28054674839464"
"8220DB000174","Tolka Estate, stop 174","53.3806803549497","-6.28095056210767"
"8220DB000175","Northland Grove, stop 175","53.3784242537332","-6.2815675389551"
"8220DB000176","Old Finglas Road, stop 176","53.3780320419758","-6.27929860607804"
"8220DB000177","Ballygall Rd East, stop 177","53.3804683765696","-6.27622403515379"
"8220DB000178","Fitzmaurice Road, stop 178","53.3818902631716","-6.27634698261821"
"8220DB000179","Ballygall Rd East, stop 179","53.3803034312785","-6.27600521980129"
"8220DB000181","Cremore Avenue, stop 181","53.3771498433788","-6.27422370686187"
"8220DB000182","Met Eireann, stop 182","53.3756567668245","-6.2698050597086"
"8220DB000183","Botanic Gardens, stop 183","53.3723159291239","-6.26875318486034"
"8220DB000184","Botanic Road, stop 184","53.369703681985","-6.26897935449925"
"8220DB000185","St Teresa's Place, stop 185","53.3681009359885","-6.27002113927779"
"8220DB000186","Lindsay Grove, stop 186","53.3653553426373","-6.27158997755113"
"8220DB000187","Phibsborough Road, stop 187","53.3627342523627","-6.27244736533827"
"8220DB000188","North Circular Road, stop 188","53.3601206877577","-6.27258314915006"
"8220DB000189","Fire Station, stop 189","53.3571674394906","-6.27346881555335"
"8220DB000190","Broadstone, stop 190","53.3551257304168","-6.2733710740057"
"8220DB000191","Western Way, stop 191","53.3550179485778","-6.26903378050287"
"8220DB000192","Mountjoy Street, stop 192","53.3563972112382","-6.2680764696391"
"8220DB000193","Finglas Park, stop 193","53.391196305981","-6.2941040348739"
"8220DB000194","Western Way, stop 194","53.3550406495542","-6.2699793110377"
"8220DB000195","Broadstone, stop 195","53.355011777879","-6.27357097973092"
"8220DB000196","Fire Station, stop 196","53.356883899293","-6.27375070406949"
"8220DB000197","Monck Place, stop 197","53.3589526316143","-6.27323137351168"
"8220DB000198","Phibsborough SC, stop 198","53.361625382881","-6.27283781041656"
"8220DB000199","Munster Street, stop 199","53.3636218115005","-6.27229124622515"
"8220DB000200","Prospect Way, stop 200","53.3674226926335","-6.27159644393797"
"8220DB000201","Botanic Road, stop 201","53.3682910986623","-6.27011862691076"
"8220DB000202","Fairfield Road, stop 202","53.3700800875522","-6.26890397753371"
"8220DB000203","Whitehall College, stop 203","53.3763927937161","-6.25001002810668"
"8220DB000204","Highfield Hospital, stop 204","53.3795883575696","-6.24666219273756"
"8220DB000205","Iveragh Road, stop 205","53.3813753269398","-6.24532604699468"
"8220DB000206","Collins Avenue West, stop 206","53.3835460890355","-6.24747670792423"
"8220DB000207","Larkhill Road, stop 207","53.3848216307388","-6.24987478276797"
"8220DB000208","Glendun Road, stop 208","53.3866539303184","-6.24795040815751"
"8220DB000209","Larkhill Road, stop 209","53.3872711105316","-6.24591044728037"
"8220DB000210","Crestfield Road, stop 210","53.3875940812754","-6.24831772849051"
"8220DB000211","Collins Avenue, stop 211","53.3842808561657","-6.24916033059412"
"8220DB000212","Whitehall, stop 212","53.3831956351303","-6.24625839753317"
"8220DB000213","Iveragh Road, stop 213","53.381449544026","-6.24487202356891"
"8220DB000214","Highfield Hospital, stop 214","53.3794084835756","-6.24665455182551"
"8220DB000215","Collins Avenue, stop 215","53.3818722870075","-6.24244942922944"
"8220DB000216","Beaumont Road, stop 216","53.3823308174863","-6.23819131969332"
"8220DB000217","Grace Park Court, stop 217","53.3843236218457","-6.23680112220441"
"8220DB000218","Shantalla Road, stop 218","53.3859238989727","-6.23378832411084"
"8220DB000220","Swords Road, stop 220","53.3879405396581","-6.24498084117378"
"8220DB000228","Shanliss Road, stop 228","53.3918773927815","-6.25971957291393"
"8220DB000233","Beaumont Road, stop 233","53.3858213105816","-6.23353699415897"
"8220DB000234","Beaumont Grove, stop 234","53.3849504827269","-6.23482084271798"
"8220DB000235","Collinswood, stop 235","53.3832966131846","-6.23724945651053"
"8220DB000236","Yellow Road, stop 236","53.3820247430984","-6.2381588600378"
"8220DB000237","Swords Road, stop 237","53.3820319328845","-6.2435251997587"
"8220DB000242","Coolgreena Road, stop 242","53.3856548985699","-6.23201042764994"
"8220DB000243","Lady of Mercy, stop 243","53.3857800608417","-6.22953967454693"
"8220DB000244","Skelly's Lane, stop 244","53.3849982136881","-6.22349851566411"
"8220DB000245","Whitethorn Crescent, stop 245","53.3844722444229","-6.21956660604606"
"8220DB000246","Artane Castle, stop 246","53.3851504766498","-6.21623087716989"
"8220DB000247","Ardlea Road, stop 247","53.3869761610618","-6.21450075590271"
"8220DB000248","Maryfield Drive, stop 248","53.3855645601755","-6.21446963135779"
"8220DB000249","Artane Castle, stop 249","53.3849335491817","-6.21614974496389"
"8220DB000250","Skelly's Lane, stop 250","53.3844194499814","-6.2202453161013"
"8220DB000251","Elmount Crescent, stop 251","53.3848322787477","-6.22321978633306"
"8220DB000252","Lady of Mercy, stop 252","53.3855680158399","-6.22796991791535"
"8220DB000253","Beaumont Hospital, stop 253","53.3899625746441","-6.2242991422764"
"8220DB000254","Beaumont Hospital, stop 254","53.3902652984461","-6.22410611366832"
"8220DB000255","Coolgreena Road, stop 255","53.3855938804217","-6.23153187241737"
"8220DB000261","Parnell Square East, stop 261","53.3540562845357","-6.26285336122222"
"8220DB000262","Parnell Square East, stop 262","53.3539469610418","-6.26275264892104"
"8220DB000263","Parnell Square East, stop 263","53.3537456234971","-6.26250545398005"
"8220DB000264","Parnell Square East, stop 264","53.3535353026736","-6.26225862681687"
"8220DB000265","Parnell Square East, stop 265","53.3533615685169","-6.26205538070456"
"8220DB000270","O'Connell St Upper, stop 270","53.3506233915332","-6.26042429163428"
"8220DB000271","O'Connell St Lower, stop 271","53.3485963625842","-6.25948541997207"
"8220DB000272","O'Connell St Upper, stop 272","53.3514644798942","-6.26078060573289"
"8220DB000273","O'Connell Bridge, stop 273","53.3472474159548","-6.25881940153953"
"8220DB000274","O'Connell St Upper, stop 274","53.3503490838246","-6.2607208686217"
"8220DB000276","River Road, stop 276","53.3774022009268","-6.33179658312853"
"8220DB000277","O'Connell St Upper, stop 277","53.3508223258205","-6.26050631978687"
"8220DB000278","O'Connell St Upper, stop 278","53.3515608719055","-6.26122733564312"
"8220DB000279","O'Connell St Upper, stop 279","53.3501317464117","-6.26060954701661"
"8220DB000281","O'Connell St Upper, stop 281","53.3513435349612","-6.26111600843156"
"8220DB000284","Rathbourne Avenue, stop 284","53.377282623932","-6.32838928381525"
"8220DB000286","Cathal Brugha Street, Stop No. 286","53.352170843741","-6.25991061099432"
"8220DB000288","Irish Life, stop 288","53.349168812324","-6.25560170347432"
"8220DB000289","Abbey St Lower, stop 289","53.3490351823495","-6.25629812341938"
"8220DB000292","Abbey St Lower, stop 292","53.349199694764","-6.25525495938706"
"8220DB000297","Eden Quay, stop 297","53.3481432679383","-6.25677012601708"
"8220DB000298","Eden Quay, stop 298","53.3482006633767","-6.25639226781078"
"8220DB000299","Eden Quay, stop 299","53.3482418474482","-6.25613523566331"
"8220DB000300","Liberty Hall, stop 300","53.348299240861","-6.25575737577462"
"8220DB000301","Eden Quay, stop 301","53.3479883676024","-6.25662624092321"
"8220DB000302","Eden Quay, stop 302","53.3480380961838","-6.25633882037526"
"8220DB000303","Eden Quay, stop 303","53.348059998093","-6.25599245267002"
"8220DB000307","O'Donovan Road, stop 307","53.3345770894681","-6.28008746416517"
"8220DB000308","Oscar Square, stop 308","53.3367711889568","-6.27953365692403"
"8220DB000309","Ardee Street, stop 309","53.3378498917986","-6.2789195881599"
"8220DB000312","Wellington Quay, stop 312","53.3454764728287","-6.26620615548425"
"8220DB000313","Bachelors Walk, stop 313","53.3469069007469","-6.26197249771067"
"8220DB000315","Bachelors Walk, stop 315","53.3470282859033","-6.26166715514735"
"8220DB000316","Bachelors Walk, stop 316","53.3468926523477","-6.26222842032916"
"8220DB000317","Westmoreland Street, stop 317","53.3465259444521","-6.25926936624477"
"8220DB000319","Westmoreland Street, stop 319","53.3462744267355","-6.25927961394872"
"8220DB000320","Westmoreland Street, stop 320","53.3456456323913","-6.25930523253443"
"8220DB000322","Gulliver's Retail Pk, stop 322","53.4042549924669","-6.26535084532181"
"8220DB000325","Aston Quay, stop 325","53.3466970502557","-6.25990825953705"
"8220DB000326","Aston Quay, stop 326","53.3465441159914","-6.26051529065719"
"8220DB000328","Aston Quay, stop 328","53.3463328930427","-6.26144010930234"
"8220DB000329","Aston Quay, stop 329","53.3462735131141","-6.26168284496423"
"8220DB000333","D'Olier Street, stop 333","53.3466922365933","-6.25834636399192"
"8220DB000334","D'Olier Street, stop 334","53.3465811562075","-6.25812559112211"
"8220DB000335","D'Olier Street, stop 335","53.3463614054442","-6.25784917048533"
"8220DB000336","D'Olier Street, stop 336","53.3462516394318","-6.25771846673942"
"8220DB000340","Townsend Street, stop 340","53.3459751202948","-6.25601747845666"
"8220DB000341","South Townsend St, stop 341","53.3459803858313","-6.2563777403518"
"8220DB000342","College Street, stop 342","53.3455641183199","-6.25680026075813"
"8220DB000345","Pearse St Garda Stn, stop 345","53.3454758154714","-6.25629319407125"
"8220DB000346","Pearse St Garda Stn, stop 346","53.3455443981674","-6.2566809076365"
"8220DB000350","Prince's St South, stop 350","53.3456319415842","-6.24976824959419"
"8220DB000351","Erne Street, stop 351","53.3434182647933","-6.24530817378356"
"8220DB000352","Pearse Square, stop 352","53.3429891458056","-6.24241213998985"
"8220DB000353","Grand Canal Quay, stop 353","53.3426450090451","-6.23979801761223"
"8220DB000354","Ringsend Road, stop 354","53.34223582802","-6.23643568982665"
"8220DB000355","Ringsend Garage, stop 355","53.3418173477838","-6.23305879069294"
"8220DB000356","Ringsend, stop 356","53.3419030234443","-6.22671744313459"
"8220DB000357","Irishtown Road, stop 357","53.3391710439696","-6.22312147489852"
"8220DB000371","Irishtown Road, stop 371","53.3386127807395","-6.22305458253416"
"8220DB000372","Star of the Sea, stop 372","53.3354881469527","-6.21965567144895"
"8220DB000373","Farney Park, stop 373","53.3342753312741","-6.21788927259648"
"8220DB000374","Sandymount, stop 374","53.3332284399034","-6.21640134211917"
"8220DB000375","Dromard Terrace, stop 375","53.3340611346546","-6.21438451306244"
"8220DB000381","St John's Church, stop 381","53.3243237661094","-6.21237419337661"
"8220DB000385","Newgrove Avenue, stop 385","53.3323510231208","-6.21122768793997"
"8220DB000387","Sandymount, stop 387","53.3324995102021","-6.21574105767743"
"8220DB000388","Farney Park, stop 388","53.3345088619679","-6.21848017255207"
"8220DB000389","Star of the Sea, stop 389","53.335290081799","-6.21963388936857"
"8220DB000390","Tritonville Road, stop 390","53.3376299137873","-6.22223947933765"
"8220DB000391","Bath Street, stop 391","53.340063855475","-6.22392535183319"
"8220DB000392","Ringsend, stop 392","53.3417336311692","-6.22741532105916"
"8220DB000393","Tritonville Road, stop 393","53.3369038877197","-6.22237479685257"
"8220DB000395","Ringsend Road, stop 395","53.3419400535678","-6.23527645441628"
"8220DB000396","Grand Canal Quay, stop 396","53.3424425175736","-6.23947594842615"
"8220DB000397","Pearse Square, stop 397","53.342785555443","-6.24201500730756"
"8220DB000398","Erne Street, stop 398","53.3432949350384","-6.24547844686784"
"8220DB000399","Pearse Station, stop 399","53.3438668221087","-6.2483086014322"
"8220DB000400","Shaw Street, stop 400","53.3448491210166","-6.25338997292405"
"8220DB000404","Nassau Street, stop 404","53.3426633325129","-6.25634789239425"
"8220DB000405","Nassau Street, stop 405","53.342481689184","-6.25560437266425"
"8220DB000406","Nassau Street, stop 406","53.3426061451661","-6.25612494578256"
"8220DB000407","Custom House, stop 407","53.3483795866704","-6.25387650599506"
"8220DB000408","Merrion Sq North, stop 408","53.3409707826263","-6.25001923957637"
"8220DB000409","Holles Street, stop 409","53.3401367313194","-6.24769559556971"
"8220DB000410","Mount Street Lower, stop 410","53.338813450866","-6.24389039032323"
"8220DB000411","Mount Street Bridge, stop 411","53.3381171192237","-6.24177155350135"
"8220DB000412","Haddington Road, stop 412","53.3352555102392","-6.23727931905615"
"8220DB000413","Lansdowne Park, stop 413","53.3340941933076","-6.23654639405147"
"8220DB000414","Lansdowne Road, stop 414","53.3315738058974","-6.23447321695269"
"8220DB000415","American Embassy, stop 415","53.3303378154095","-6.23294774966432"
"8220DB000416","RDS Ballsbridge, stop 416","53.3286399201201","-6.22936956914697"
"8220DB000417","Merrion Road, stop 417","53.3276995856533","-6.22597042048849"
"8220DB000418","British Embassy, stop 418","53.3257198105141","-6.22339529752613"
"8220DB000419","Shrewsbury Park, stop 419","53.3239951058445","-6.22044950312346"
"8220DB000420","Merlyn Road, stop 420","53.3219108012913","-6.21750392172743"
"8220DB000421","Merrion View Avenue, stop 421","53.3200051794243","-6.21449112042236"
"8220DB000422","St Vincent's Hosp, stop 422","53.3180641918658","-6.21032428070776"
"8220DB000423","Herbert Avenue, stop 423","53.317148504137","-6.20740565828112"
"8220DB000424","Merrion Gates, stop 424","53.3153943802017","-6.20372686621338"
"8220DB000476","Merrion Gates, stop 476","53.3157515263735","-6.20476252273258"
"8220DB000477","Herbert Avenue, stop 477","53.3168630546851","-6.20695232009327"
"8220DB000478","St Vincent's Hosp, stop 478","53.3181142989183","-6.21126782530883"
"8220DB000479","Merrion Centre, stop 479","53.3191439676238","-6.21340128669965"
"8220DB000480","Netherlands Embassy, stop 480","53.32084997999","-6.21628720536765"
"8220DB000481","Wanderers FC, stop 481","53.3223446397574","-6.21826644297952"
"8220DB000482","Shrewsbury Road, stop 482","53.3247277780876","-6.22196529496766"
"8220DB000483","British Embassy, stop 483","53.3259441074967","-6.22397148052323"
"8220DB000485","RDS Ballsbridge, stop 485","53.3282515101299","-6.22863497077614"
"8220DB000486","RDS Ballsbridge, stop 486","53.3283287183676","-6.22899210119277"
"8220DB000487","American Embassy, stop 487","53.3308552893834","-6.23390230837204"
"8220DB000488","Lansdowne Park, stop 488","53.333098554632","-6.23607694701102"
"8220DB000489","St Mary's Rd South, stop 489","53.3349420031478","-6.23735231265615"
"8220DB000490","Haddington Road, stop 490","53.3365738419154","-6.23890680600162"
"8220DB000491","Mount Street Bridge, stop 491","53.3378140535117","-6.24133351088669"
"8220DB000492","Mount Street Lower, stop 492","53.3385846851446","-6.24361446215904"
"8220DB000493","Holles Street, stop 493","53.3398534163799","-6.24737682273893"
"8220DB000494","Clare Street, stop 494","53.341435583359","-6.25168225233912"
"8220DB000495","Pearse Station, stop 495","53.3435913198155","-6.24974670516899"
"8220DB000496","Busáras, stop 496","53.3494968761366","-6.2522235786816"
"8220DB000497","Connolly, stop 497","53.3505260754016","-6.25069434322377"
"8220DB000499","Summerhill Parade, stop 499","53.3574503386186","-6.24908862686219"
"8220DB000500","Ballybough Road, stop 500","53.3590360763203","-6.24628915528178"
"8220DB000501","Clonliffe Avenue, stop 501","53.3607056846908","-6.24369637425139"
"8220DB000509","Ballybough Road, stop 509","53.3606013493615","-6.24332503950189"
"8220DB000510","Charleville Avenue, stop 510","53.3591893775426","-6.24571192723736"
"8220DB000511","Summerhill Parade, stop 511","53.3575155897157","-6.24863523337019"
"8220DB000513","Rutland Street, stop 513","53.3552119629841","-6.25397276810393"
"8220DB000515","Portland Row, stop 515","53.3535348728268","-6.24809240079494"
"8220DB000516","North Strand Road, stop 516","53.3556839194156","-6.24570568436261"
"8220DB000518","Waterloo Avenue, stop 518","53.358904162431","-6.24099094394505"
"8220DB000519","North Strand Fire Station, stop 519","53.3603387601192","-6.23953452865892"
"8220DB000521","Annesley Bridge, stop 521","53.3616370470509","-6.23797846068548"
"8220DB000522","Fairview, stop 522","53.3632889490314","-6.23541597469792"
"8220DB000523","Marino College, stop 523","53.3642854537147","-6.23169333166141"
"8220DB000525","Howth Road, stop 525","53.3649608735137","-6.22633091116311"
"8220DB000526","Copeland Grove, stop 526","53.3668695721507","-6.22111227858026"
"8220DB000527","Ashbrook, stop 527","53.3680198762304","-6.21267888054439"
"8220DB000528","Castle Grove, stop 528","53.3692640807","-6.20993674463172"
"8220DB000529","Collins Avenue, stop 529","53.3705774149481","-6.20761234516723"
"8220DB000530","Killester, stop 530","53.3712245323475","-6.20402332968275"
"8220DB000531","The Demesne, stop 531","53.3732509125134","-6.20130788472607"
"8220DB000532","The Meadows, stop 532","53.3758020804062","-6.19347468575645"
"8220DB000533","Ennafort Park, stop 533","53.3775832778058","-6.18705613952435"
"8220DB000534","Cill Eanna, stop 534","53.3787502415627","-6.1816402899894"
"8220DB000535","Raheny, stop 535","53.3802570730373","-6.17730695711366"
"8220DB000536","Raheny Library, stop 536","53.380423756711","-6.17351172677598"
"8220DB000537","Avondale Park, stop 537","53.3799012003082","-6.16815263497718"
"8220DB000538","Maywood, stop 538","53.3801380645897","-6.16426418318847"
"8220DB000539","Foxfield, stop 539","53.380673661813","-6.1593556415375"
"8220DB000540","Lonsdale, stop 540","53.3813362763715","-6.15511794353322"
"8220DB000541","James Larkin Road, stop 541","53.3818727077533","-6.15202806844657"
"8220DB000542","Strand View, stop 542","53.3836619200484","-6.14626794992899"
"8220DB000591","Kilbarrack Road, stop 591","53.3841675899819","-6.1446824866416"
"8220DB000592","James Larkin Road, stop 592","53.3827330098133","-6.14838287246937"
"8220DB000593","Howth Road, stop 593","53.3818486949724","-6.1516382571641"
"8220DB000594","Lonsdale , stop 594","53.3811633655603","-6.15556136213255"
"8220DB000595","Foxfield, stop 595","53.3805999504448","-6.15923856299824"
"8220DB000596","Shieling Square, stop 596","53.3802528433273","-6.16179397207683"
"8220DB000597","Maywood, stop 597","53.3798981358436","-6.16561235536727"
"8220DB000598","Avondale Park, stop 598","53.3798466295629","-6.16928237742025"
"8220DB000599","Raheny Library, stop 599","53.380300318921","-6.17308107835297"
"8220DB000600","Raheny, stop 600","53.3802479252415","-6.17611981052532"
"8220DB000601","Cill Eanna, stop 601","53.3792234833207","-6.17966599663786"
"8220DB000602","Wade's Avenue, stop 602","53.3781425247933","-6.18304907100983"
"8220DB000603","Ennafort Park, stop 603","53.3773821590119","-6.18742542966489"
"8220DB000604","All Saints Road, stop 604","53.3763546440125","-6.1907908597344"
"8220DB000605","The Meadows, stop 605","53.3756666621091","-6.19343532660639"
"8220DB000606","St Brigid's Church, stop 606","53.3747089784039","-6.19786466034232"
"8220DB000607","The Demesne, stop 607","53.3725157799941","-6.2020302137195"
"8220DB000608","Killester, stop 608","53.3710783844663","-6.20446531476556"
"8220DB000609","Castle Grove, stop 609","53.3698375440806","-6.20862025648962"
"8220DB000610","Ashbrook, stop 610","53.3683623013095","-6.21153745527432"
"8220DB000611","Hollybrook Park, stop 611","53.3667546791219","-6.21883292211129"
"8220DB000612","Copeland Avenue, stop 612","53.3657562265207","-6.22420912998324"
"8220DB000613","Marino Crescent Park, stop 613","53.3646174709919","-6.22681099838456"
"8220DB000614","Fairview, stop 614","53.3636380024156","-6.23349323029591"
"8220DB000615","Annesley Bridge, stop 615","53.3619064164568","-6.23735129893029"
"8220DB000616","Nth Strand Fire Stn, stop 616","53.3598447138057","-6.23955489630255"
"8220DB000617","Strandville Avenue, stop 617","53.3578945210736","-6.24200909637442"
"8220DB000618","Newcomen Bridge, stop 618","53.3561011779693","-6.2447420676032"
"8220DB000619","Amiens Street, stop 619","53.354044625043","-6.24730533351979"
"8220DB000620","Talbot Street, stop 620","53.3509610944437","-6.25277955690344"
"8220DB000621","Talbot Street, stop 621","53.3505177759176","-6.25626764847559"
"8220DB000624","Ribh Road, stop 624","53.3801853071332","-6.18912523804644"
"8220DB000625","Lein Gardens, stop 625","53.3817875653858","-6.18632129728294"
"8220DB000626","Edenmore Green, stop 626","53.3844945184184","-6.184056419159"
"8220DB000627","Edenmore Green, stop 627","53.3854070170203","-6.18200303261629"
"8220DB000628","Edenmore Grove, stop 628","53.3869549963236","-6.18390657920355"
"8220DB000629","Edenmore Drive, stop 629","53.3865279695261","-6.18596942471487"
"8220DB000630","Springdale Road, stop 630","53.3872439958543","-6.18932175227282"
"8220DB000633","Tonlegee Drive, stop 633","53.3896443404853","-6.18935518044474"
"8220DB000634","Tonlegee Avenue, stop 634","53.3902751966557","-6.18414110920998"
"8220DB000635","Glenwood Road, stop 635","53.3890225360691","-6.18392380127641"
"8220DB000636","Glenfarne Road, stop 636","53.3888586595197","-6.18674234809091"
"8220DB000637","Springdale Road, stop 637","53.3877918262056","-6.18988485424514"
"8220DB000638","Edenmore Avenue, stop 638","53.3867623213274","-6.18837999607747"
"8220DB000639","Edenmore Park, stop 639","53.3863330185355","-6.18674446075589"
"8220DB000640","Edenmore Grove, stop 640","53.3867053852028","-6.18345113980018"
"8220DB000641","Edenmore Green, stop 641","53.3858263828484","-6.18239108146187"
"8220DB000642","Edenmore Green, stop 642","53.3847318483083","-6.18311422897609"
"8220DB000643","St Josephs Hospital, stop 643","53.3835661358844","-6.18388546834102"
"8220DB000644","Lein Park, stop 644","53.3823625142349","-6.18571057664609"
"8220DB000645","Ribh Road, stop 645","53.3801688019276","-6.18862988048621"
"8220DB000649","All Saints Road, stop 649","53.3762836659138","-6.18966656708737"
"8220DB000650","Sybil Hill Avenue, stop 650","53.3754028537371","-6.18552548323378"
"8220DB000651","All Saints Park, stop 651","53.3754794507748","-6.17993090906123"
"8220DB000653","Raheny, stop 653","53.3794630466278","-6.17534163896214"
"8220DB000654","Watermill Road, stop 654","53.3792100758013","-6.1770209808307"
"8220DB000655","Watermill Drive, stop 655","53.377738671388","-6.17543040232874"
"8220DB000656","St Anne's Avenue, stop 656","53.3764702007995","-6.17770919175959"
"8220DB000657","All Saints Park, stop 657","53.3755453978811","-6.17895111704471"
"8220DB000658","Waterfall Road, stop 658","53.3749800484848","-6.18313861991678"
"8220DB000659","Sybil Hill Avenue, stop 659","53.3752374406836","-6.18587821348983"
"8220DB000662","Clanmoyle Road, stop 662","53.3738704165821","-6.2126292751266"
"8220DB000663","Saint Peters School, stop 663","53.3747635383755","-6.21705581024778"
"8220DB000664","Donnycarney Church, stop 664","53.3747192481277","-6.21950756213928"
"8220DB000665","Casino Park, stop 665","53.3724663177962","-6.22212646122617"
"8220DB000666","Mount Temple School, stop 666","53.3702331241242","-6.22426334784648"
"8220DB000667","Brian Road, stop 667","53.3679816454687","-6.22698684651136"
"8220DB000668","Marino Crescent Park, stop 668","53.3645749808616","-6.2293973168947"
"8220DB000669","Malahide Road, stop 669","53.3663170047536","-6.2286789053178"
"8220DB000670","Mount Temple School, stop 670","53.3689561148113","-6.22602966389205"
"8220DB000671","Nazareth House, stop 671","53.3707168419713","-6.22415305315512"
"8220DB000672","Donnycarney Road, stop 672","53.3734663500314","-6.22107782075331"
"8220DB000674","Parnell Park, stop 674","53.3746860705086","-6.21608209235959"
"8220DB000675","Buckingham St Lower, stop 675","53.3528581377187","-6.24852575947702"
"8220DB000709","St Brigid's Church, stop 709","53.3750380598535","-6.19703913201497"
"8220DB000722","Raheny Station, stop 722","53.3811136996541","-6.17572202474458"
"8220DB000723","Raheny Road, stop 723","53.3841517880068","-6.17572742205121"
"8220DB000724","Grange Park Road, stop 724","53.3869554629434","-6.17451001140899"
"8220DB000725","Ardscoil La Salle, stop 725","53.3895723720669","-6.17048881126748"
"8220DB000726","Grange Road, stop 726","53.3917483514253","-6.16761378066958"
"8220DB000727","Ardara Avenue, stop 727","53.3937048518666","-6.16683802482064"
"8220DB000728","Holy Trinity Church, stop 728","53.3953162106862","-6.16349059472369"
"8220DB000729","Holy Trinity NS, stop 729","53.3965584588012","-6.16244459517583"
"8220DB000730","Grangemore Road, stop 730","53.3981666977319","-6.16181886879412"
"8220DB000738","Grange Road, stop 738","53.3976003550339","-6.16181320548635"
"8220DB000739","Holy Trinity Church, stop 739","53.3951450858632","-6.16346788917255"
"8220DB000740","Ardara Avenue, stop 740","53.3931412776249","-6.16701261526435"
"8220DB000741","St Donagh's Road, stop 741","53.3919077252243","-6.16745657119044"
"8220DB000742","Raheny Road, stop 742","53.3898234138486","-6.16986158795105"
"8220DB000743","Woodbine Park, stop 743","53.3880248638058","-6.17273523820554"
"8220DB000744","Belmont Park, stop 744","53.385092198804","-6.1749204843706"
"8220DB000745","Raheny Station, stop 745","53.3813435656084","-6.17547167673021"
"8220DB000746","Kildare Street, stop 746","53.3401536166397","-6.25559428153346"
"8220DB000747","Kildare Street, stop 747","53.339930803028","-6.25572351873592"
"8220DB000748","Huguenot Cemetery, stop 748","53.3385095343971","-6.25503066600713"
"8220DB000749","Baggot St Lower, stop 749","53.3376207009532","-6.25080214718473"
"8220DB000750","Fitzwilliam Street, stop 750","53.3365710800776","-6.24848750327109"
"8220DB000751","Herbert Street, stop 751","53.3353205479273","-6.24657163552751"
"8220DB000752","Baggot St Upper, stop 752","53.3336716542353","-6.24446202003109"
"8220DB000753","Waterloo Road, stop 753","53.3324533902718","-6.24352105457139"
"8220DB000754","Burlington Road, stop 754","53.330783782374","-6.24428032727376"
"8220DB000755","Wellington Lane, stop 755","53.3288280456981","-6.24514136798765"
"8220DB000756","Royal Hospital, stop 756","53.3263997617809","-6.24259874670305"
"8220DB000757","Donnybrook Village, stop 757","53.324081337159","-6.23958650985933"
"8220DB000758","Victoria Avenue, stop 758","53.3226869429553","-6.2376773804315"
"8220DB000759","Donnybrook Stadium, stop 759","53.3203488508448","-6.23334551683728"
"8220DB000760","Donnybrook Church, stop 760","53.318330187289","-6.23056195593035"
"8220DB000761","Teresian School, stop 761","53.3161004007996","-6.22748721370695"
"8220DB000762","RTE, stop 762","53.3145170648506","-6.22437094406488"
"8220DB000763","Belfield Court, stop 763","53.3123201447844","-6.2211003190802"
"8220DB000769","Belfield Court, stop 769","53.3119010923178","-6.22132785711797"
"8220DB000770","RTE, stop 770","53.3146361875625","-6.22573181130967"
"8220DB000771","Teresian School, stop 771","53.315880069244","-6.22778152242798"
"8220DB000772","Donnybrook Garage, stop 772","53.3184852574564","-6.23132106360088"
"8220DB000773","Donnybrook Road, stop 773","53.3199163484799","-6.23327331931076"
"8220DB000774","Donnybrook Garda Stn, stop 774","53.3216121235643","-6.23549999641969"
"8220DB000775","Donnybrook Village, stop 775","53.3234897098062","-6.23908544721608"
"8220DB000776","Morehampton Terrace, stop 776","53.3254792402838","-6.2417358210607"
"8220DB000777","Royal Hospital, stop 777","53.3269721601116","-6.24362614364866"
"8220DB000779","Waterloo Road, stop 779","53.3286887363318","-6.24544736264849"
"8220DB000780","Burlington Road, stop 780","53.3310633511706","-6.24434391821202"
"8220DB000781","Baggot Street, stop 781","53.3326262714266","-6.24366410261758"
"8220DB000782","Baggot St Upper, stop 782","53.3335838144594","-6.24460076754328"
"8220DB000783","Baggot St Lower, stop 783","53.3353085373768","-6.2469775639698"
"8220DB000784","Fitzwilliam Street, stop 784","53.3364567280923","-6.24865737146509"
"8220DB000785","Pembroke St Lower, stop 785","53.3371058976042","-6.25185937348658"
"8220DB000786","Embassy of Malta, stop 786","53.3351644610142","-6.25615829567478"
"8220DB000790","Stephen's Green Nth, stop 790","53.3392943719705","-6.2583024730144"
"8220DB000792","Dawson Street, stop 792","53.3404489881529","-6.25858580845115"
"8220DB000793","Dawson Street, stop 793","53.3408597860312","-6.25840386924726"
"8220DB000795","Berkeley Road, stop 795","53.3587400433","-6.26972427815321"
"8220DB000796","Berkeley Road, stop 796","53.3600182144458","-6.26985278581187"
"8220DB000797","Phibsborough PO, stop 797","53.3607260028228","-6.27466216472101"
"8220DB000798","Rathdown Road, stop 798","53.3594766361445","-6.27964070094012"
"8220DB000799","Charleville Road, stop 799","53.3588687100123","-6.28173855104542"
"8220DB000800","Annamore Parade, stop 800","53.3580651515253","-6.28461042894806"
"8220DB000801","Annamore Road, stop 801","53.3574704998135","-6.28763908243526"
"8220DB000802","Drumalee, stop 802","53.356498322495","-6.29129872279029"
"8220DB000803","Oxmantown Road, stop 803","53.3547130307126","-6.29404421385996"
"8220DB000804","Grange Abbey Cresc, stop 804","53.3536849851876","-6.29569268053348"
"8220DB000807","Phoenix Park, stop 807","53.3515565121175","-6.29770038608447"
"8220DB000808","North Circular Road, stop 808","53.3539946695217","-6.29534982649483"
"8220DB000809","Marlborough Road, stop 809","53.3552607398072","-6.29337634624947"
"8220DB000810","Ellesmere Avenue, stop 810","53.3570998601593","-6.28999764127668"
"8220DB000811","Annamore Road, stop 811","53.3575671567889","-6.28748496819663"
"8220DB000812","Annamore Parade, stop 812","53.3582663606545","-6.28422674373796"
"8220DB000813","Charleville Road, stop 813","53.3591900460994","-6.28095937438318"
"8220DB000814","St Peter's Church, stop 814","53.3605400151393","-6.2760970492999"
"8220DB000817","Mater Hospital, stop 817","53.3596462179702","-6.26961243844765"
"8220DB000818","O'Connell Avenue, stop 818","53.3584811208105","-6.26922394483129"
"8220DB000819","Blessington Street, stop 819","53.3563040208513","-6.26599198569768"
"8220DB000820","Carnlough Road, stop 820","53.3619677951462","-6.29351397958423"
"8220DB000821","Drumcliffe Road, stop 821","53.3645519035065","-6.29383143635438"
"8220DB000822","Mulroy Road, stop 822","53.3671206776284","-6.29182032110427"
"8220DB000823","Kilkieran Road, stop 823","53.3682351539515","-6.29118965054409"
"8220DB000824","Bannow Road, stop 824","53.3697478518956","-6.29326309496115"
"8220DB000825","St Finbar's Road, stop 825","53.3704294399345","-6.29693282591368"
"8220DB000826","Carnlough Road, stop 826","53.3712178543801","-6.30116950755914"
"8220DB000827","Ventry Park, stop 827","53.3712939490676","-6.30399186938362"
"8220DB000828","Broombridge Station, stop 828","53.3710448241129","-6.29974867792338"
"8220DB000829","St Finbar's Road, stop 829","53.3703968945613","-6.29591219523139"
"8220DB000830","Bannow Road, stop 830","53.3696243716589","-6.2921709801525"
"8220DB000831","Mulroy Road, stop 831","53.3676619691102","-6.29133281290901"
"8220DB000832","Drumcliffe Road, stop 832","53.3636294546061","-6.2940636348917"
"8220DB000833","Swilly Road, stop 833","53.3617761473218","-6.29331128383964"
"8220DB000834","Binns Bridge, stop 834","53.3619754108391","-6.26042763798583"
"8220DB000835","St Brigid's Rd Lower, stop 835","53.3626280166373","-6.26327096161364"
"8220DB000836","Claude Road, stop 836","53.3632915018077","-6.26624916236241"
"8220DB000837","David Road, stop 837","53.3637784077139","-6.26821283704861"
"8220DB000838","Whitworth Road, stop 838","53.3643193961187","-6.27018939098137"
"8220DB000839","David Road, stop 839","53.3637449204203","-6.26776341253996"
"8220DB000840","Claude Road, stop 840","53.3632433495651","-6.26540966607283"
"8220DB000841","St Patrick's Road, stop 841","53.3621221995308","-6.26063201536309"
"8220DB000842","Stephen's Green East, stop 842","53.3372519750086","-6.25631338920494"
"8220DB000843","Stephen's Green East, stop 843","53.3370024314237","-6.25645872069955"
"8220DB000844","Stephen's Green East, stop 844","53.3376318720612","-6.25586239848744"
"8220DB000845","Leeson St Lower, stop 845","53.3354534454667","-6.25625161826536"
"8220DB000846","Fitzwilliam Place, stop 846","53.3334537330024","-6.25411090847852"
"8220DB000847","Leeson St Upper, stop 847","53.3316014451652","-6.25221961965172"
"8220DB000848","Sussex Road, stop 848","53.3297279908182","-6.24888799835484"
"8220DB000849","Appian Way, stop 849","53.3278982725913","-6.24792700914128"
"8220DB000850","Chelmsford Road, stop 850","53.3260857395333","-6.25119903116792"
"8220DB000851","Chelmsford Road, stop 851","53.3250997052131","-6.25322101602938"
"8220DB000852","Ranelagh, stop 852","53.3244292664946","-6.2528580853708"
"8220DB000853","Sandford Road, stop 853","53.3225927700081","-6.2483695770726"
"8220DB000854","Larch Grove, stop 854","53.3216316712804","-6.24657756321513"
"8220DB000855","Sandford Road, stop 855","53.3193022984582","-6.24281536591718"
"8220DB000856","Clonskeagh Road, stop 856","53.3176551118177","-6.24082667970814"
"8220DB000857","Clonskeagh Hospital, stop 857","53.316567380099","-6.2383798303354"
"8220DB000858","Clonskeagh, stop 858","53.3140944728148","-6.23830157217875"
"8220DB000881","Clonskeagh, stop 881","53.3145635684128","-6.23841733156693"
"8220DB000882","Clonskeagh Hospital, stop 882","53.3167046565389","-6.23915467649301"
"8220DB000883","Eglinton Road, stop 883","53.3176851573317","-6.24103558331428"
"8220DB000884","Norwood Park, stop 884","53.3199969912166","-6.24421284442789"
"8220DB000885","Hollybank Ave Lower, stop 885","53.3212589673343","-6.24629262123036"
"8220DB000886","Merton Drive, stop 886","53.3225973962252","-6.24868463259578"
"8220DB000887","Ranelagh, stop 887","53.3242077457424","-6.25246180680158"
"8220DB00089","Lambay Road, stop 89","53.3780271155011","-6.26159214988754"
"8220DB000893","Cowper Road, stop 893","53.3160725163387","-6.25915818006416"
"8220DB000894","Cowper Road, stop 894","53.3151931375359","-6.26419198051225"
"8220DB000895","Palmeston Villas, stop 895","53.3139322642602","-6.26401801846624"
"8220DB000896","Palmerston Park, stop 896","53.3133721496325","-6.26135424684804"
"8220DB000897","Palmerston Road, stop 897","53.3142996202644","-6.25838984601834"
"8220DB000903","Chelmsford Road, stop 903","53.3255834292566","-6.25249565673739"
"8220DB000904","Appian Way, stop 904","53.3274174409139","-6.24884751574073"
"8220DB000906","Leeson St Upper, stop 906","53.3288107659747","-6.24763437727536"
"8220DB000907","St Johns Ambulance, stop 907","53.3297193588591","-6.25075010860462"
"8220DB000908","Grand Parade, stop 908","53.3311542855373","-6.25237303421837"
"8220DB000909","Fitzwilliam Place, stop 909","53.3331476599204","-6.25407836385524"
"8220DB000956","Naomh Barróg GAA, stop 956","53.389831802114","-6.1529011457283"
"8220DB000958","St. Donagh's, stop 958","53.3909165331514","-6.16378528809514"
"8220DB000959","Grange Road, stop 959","53.3910184657041","-6.16690837598939"
"8220DB000960","Tonlegee Road, stop 960","53.3911576199048","-6.17187930562005"
"8220DB000961","Millwood Villas, stop 961","53.3910568299935","-6.17645454975119"
"8220DB000962","Limewood, stop 962","53.3907949286244","-6.18285597422979"
"8220DB000963","Rathvale, stop 963","53.3905102717887","-6.18659695896849"
"8220DB000964","St John's Church, stop 964","53.3900734007694","-6.19216365049833"
"8220DB000965","Malahide Road, stop 965","53.3888900839165","-6.196528881291"
"8220DB000966","Oscar Traynor Road, stop 966","53.3912154012214","-6.20291104884236"
"8220DB000967","Coolock Drive, stop 967","53.3922920610184","-6.20636914233891"
"8220DB000968","Armstrong Walk, stop 968","53.3937589536653","-6.21068316280386"
"8220DB000969","Northside SC, stop 969","53.3956824564187","-6.21548963822034"
"8220DB000972","Aulden Grange, stop 972","53.3969960428868","-6.23492379932207"
"8220DB000979","St Canice's GNS, stop 979","53.3899538085915","-6.29710063600169"
"8220DB000980","Finglas Sports Centre, stop 980","53.3898045691491","-6.30303046268453"
"8220DB000981","Finglas Garda Stn, stop 981","53.3897809067965","-6.30706083246075"
"8220DB000983","Mellowes Road, stop 983","53.3901416743217","-6.31095569222059"
"8220DB000984","Finglas Garda Stn, stop 984","53.389911388028","-6.30675494955134"
"8220DB000985","Finglas Sports Centre, stop 985","53.3899247513554","-6.30389772523609"
"8220DB000987","Finglas, stop 987","53.3902199268642","-6.29937538551073"
"8220DB000988","St Canice's GNS, stop 988","53.3898902365438","-6.29579510810408"
"8220DB000993","Astro Park, stop 993","53.3977025969998","-6.22922517485573"
"8220DB000999","Coolock Drive, stop 999","53.3922410515313","-6.20596530798643"
"8220DB001000","Beechpark Avenue, stop 1000","53.3909830766831","-6.20180818492741"
"8220DB001001","Brookville Crescent, stop 1001","53.3900811211583","-6.19921499123024"
"8220DB001002","Tonlegee Road, stop 1002","53.389175499825","-6.19519371485565"
"8220DB001003","St John's Church, stop 1003","53.3902995343306","-6.19107150115651"
"8220DB001004","Rathvale, stop 1004","53.3906381577829","-6.18614044923742"
"8220DB001005","Limewood, stop 1005","53.390951406591","-6.18191708342303"
"8220DB001006","Millwood Villas, stop 1006","53.3911703560547","-6.17682559538361"
"8220DB001007","Millbrook Drive, stop 1007","53.3912462839681","-6.1723867296541"
"8220DB001008","Kilbarrack Road, stop 1008","53.3911267142933","-6.16693379574106"
"8220DB001009","St. Donagh's Road, stop 1009","53.391089075661","-6.16448455072235"
"8220DB001012","Naomh Barróg GAA, stop 1012","53.3902500117191","-6.15262742856293"
"8220DB001013","Earlsfort Terrace, stop 1013","53.335481505514","-6.25755688072012"
"8220DB001015","Adelaide Road, stop 1015","53.3327303534192","-6.25996635506881"
"8220DB001016","South Richmond St, stop 1016","53.3311593141903","-6.26441458035507"
"8220DB001017","Rathmines Rd Lower, stop 1017","53.3292996511616","-6.26447506533579"
"8220DB001018","St Mary's College, stop 1018","53.3275854590935","-6.26464974527369"
"8220DB001019","Military Road, stop 1019","53.3265475976236","-6.26497711774675"
"8220DB001020","Rathmines, stop 1020","53.3251383837983","-6.26510936447961"
"8220DB001021","Rathmines Rd Upper, stop 1021","53.3213802466097","-6.26565212597855"
"8220DB001022","Summerville Park, stop 1022","53.3195217438279","-6.26455667416159"
"8220DB001023","Rathmines Close, stop 1023","53.3170461890208","-6.26491228899517"
"8220DB001024","Frankfort Avenue, stop 1024","53.3158523430772","-6.26502075611143"
"8220DB001025","Trinity Hall, stop 1025","53.3115998654618","-6.26247682304632"
"8220DB001026","Orwell Park, stop 1026","53.3091057707881","-6.26032708219737"
"8220DB001027","Dodder Walk, stop 1027","53.3087379400355","-6.25791094112812"
"8220DB001028","South Hill, stop 1028","53.3084991105613","-6.25571468112145"
"8220DB001062","South Hill, stop 1062","53.3082596341826","-6.25531926586885"
"8220DB001063","Dodder Walk, stop 1063","53.3085720815419","-6.25886311823074"
"8220DB001064","Dartry Road, stop 1064","53.3094291383477","-6.26092922058896"
"8220DB001065","Trinity Hall, stop 1065","53.3118290249026","-6.26278268022837"
"8220DB001066","Rathmines Rd Upper, stop 1066","53.3137534805852","-6.26408530832734"
"8220DB001067","Rathmines Close, stop 1067","53.3170507712305","-6.26522730644194"
"8220DB001068","Church Avenue, stop 1068","53.3205584447214","-6.26538523670879"
"8220DB001069","Swan Centre, stop 1069","53.3232852636138","-6.26561989541269"
"8220DB001070","Rathmines, stop 1070","53.3249801839839","-6.2653559829168"
"8220DB001071","St Mary's College, stop 1071","53.3272180361682","-6.26472471169489"
"8220DB001072","South Richmond St, stop 1072","53.3310269732615","-6.264585113955"
"8220DB001074","Harcourt Luas, stop 1074","53.333795459525","-6.26397720072462"
"8220DB001076","Swan Centre, stop 1076","53.3231305919137","-6.26549106260878"
"8220DB001077","Rathmines Garda Stn, stop 1077","53.3215729885363","-6.26654498499206"
"8220DB001078","Rathgar Place, stop 1078","53.3194127648961","-6.26880907035692"
"8220DB001079","Frankfort Avenue, stop 1079","53.316654624195","-6.27075187426877"
"8220DB001080","Auburn Villas, stop 1080","53.31490919872","-6.27187306349642"
"8220DB001081","Rathgar Village, stop 1081","53.3126497028585","-6.27349517348769"
"8220DB001082","Terenure Road East, stop 1082","53.3116759487051","-6.27577063203848"
"8220DB001083","Brighton Road, stop 1083","53.3111455612612","-6.27825325307522"
"8220DB001085","St Joseph's BNS, stop 1085","53.3100994852269","-6.28237731397302"
"8220DB001086","Terenure Road West, stop 1086","53.309669570517","-6.2856060830046"
"8220DB001087","Greenlea Rd, stop 1087","53.3103351137706","-6.28939126007516"
"8220DB001088","Parkmore Drive, stop 1088","53.3109735887857","-6.29317763255714"
"8220DB001089","Lavarna Grove, stop 1089","53.3116555855479","-6.29750266095145"
"8220DB001090","Kimmage Road West, stop 1090","53.3121038877678","-6.30057644060378"
"8220DB001091","Whitehall Road, stop 1091","53.3124406081649","-6.30529057738076"
"8220DB001117","Terenure Road West, stop 1117","53.3118906498603","-6.29822868798698"
"8220DB001118","Hazelbrook Road, stop 1118","53.3113669927809","-6.29491782827776"
"8220DB001119","Parkmore Drive, stop 1119","53.3109356902429","-6.29241376344748"
"8220DB001120","Terenure Garda Stn, stop 1120","53.3101981052315","-6.2879860593036"
"8220DB001121","Templeogue Road, stop 1121","53.309001597639","-6.28540774793678"
"8220DB001122","Rathdown Park, stop 1122","53.3072196342879","-6.288375352529"
"8220DB001123","Lakelands Park, stop 1123","53.3055770247362","-6.29103703014003"
"8220DB001124","Terenure College, stop 1124","53.3041728176727","-6.29340389752316"
"8220DB001159","Bushy Park House, stop 1159","53.3023902202114","-6.29634084228481"
"8220DB001160","Terenure College, stop 1160","53.3043935295039","-6.29312500171524"
"8220DB001161","Lakelands Park, stop 1161","53.3060631361486","-6.29046240113905"
"8220DB001162","Rathdown Park, stop 1162","53.3077322505985","-6.28776959714466"
"8220DB001163","Terenure Library, stop 1163","53.3088733210509","-6.285863091797"
"8220DB001164","Terenure Road East, stop 1164","53.310411636112","-6.28158440093588"
"8220DB001165","Brighton Road, stop 1165","53.3117124365726","-6.2764295038561"
"8220DB001166","Winton Avenue, stop 1166","53.3138905067959","-6.27290478405391"
"8220DB001167","Garville Avenue, stop 1167","53.3159449091969","-6.27139594843825"
"8220DB001168","Spire View Lane, stop 1168","53.3179291684229","-6.2700098825643"
"8220DB001169","Rathmines Park, stop 1169","53.3200562645638","-6.26855785990232"
"8220DB001170","Rathmines Garda Stn, stop 1170","53.3216895475268","-6.26652524878682"
"8220DB001171","Gardiner Street Lwr, stop 1171","53.3503176870278","-6.25426294905816"
"8220DB001172","Railway Street, stop 1172","53.3517433497818","-6.25525621732702"
"8220DB001173","Gardiner Street Lwr, stop 1173","53.3537055683619","-6.25667832329378"
"8220DB001174","Mountjoy Sq West, stop 1174","53.3561865814553","-6.25854512541127"
"8220DB001175","Gardiner Street Upr, stop 1175","53.3584131944675","-6.26084318209763"
"8220DB001176","Coolock Lane Park, stop 1176","53.3993550470663","-6.22187780324987"
"8220DB001177","Clonshaugh Ind Est W, stop 1177","53.4008973630857","-6.22525748280842"
"8220DB001178","Clonshaugh Ind Est N, stop 1178","53.4034534096934","-6.21884924282628"
"8220DB001179","Clonshaugh Ind Est E, stop 1179","53.3999311495941","-6.21892118309895"
"8220DB001184","Moland Street, stop 1184","53.3508599227616","-6.25385022800024"
"8220DB001185","Oak Road, stop 1185","53.3763670141145","-6.22151304646926"
"8220DB001186","Belton Park Road, stop 1186","53.3776431058381","-6.22632993786035"
"8220DB001187","Celtic Park Road, stop 1187","53.3786075086963","-6.23135544113246"
"8220DB001188","Grace Park Heights, stop 1188","53.3800184911148","-6.23559608319271"
"8220DB001190","Grace Park Heights, stop 1190","53.3801561172424","-6.23578580779385"
"8220DB001191","Grace Park Meadows, stop 1191","53.3792171883507","-6.23307384015293"
"8220DB001192","Celtic Park Road, stop 1192","53.3786331967669","-6.23066293111017"
"8220DB001193","Grace Park Meadows, stop 1193","53.3779921991337","-6.22744276884893"
"8220DB001194","Belton Park Road, stop 1194","53.3775262086297","-6.22511728190606"
"8220DB001195","Oak Road, stop 1195","53.3763899322038","-6.2212415396415"
"8220DB001196","Elm Mount Road, stop 1196","53.377787506988","-6.21491529560223"
"8220DB001197","Killester Avenue, stop 1197","53.3792322771541","-6.21175833300337"
"8220DB001198","Mornington Grove, stop 1198","53.3825121951938","-6.20691559067275"
"8220DB001199","Mask Avenue, stop 1199","53.3849844627802","-6.20276761448287"
"8220DB001200","Chanel College, stop 1200","53.3869626486642","-6.20103048909782"
"8220DB001201","Brookville Crescent, stop 1201","53.3907898125526","-6.19614784293635"
"8220DB001202","Newtown Cottages, stop 1202","53.3925013826657","-6.1934290504328"
"8220DB001203","Newtown Road, stop 1203","53.3967263536318","-6.18753567030054"
"8220DB001205","Clare Hall, stop 1205","53.4015026048815","-6.18185822928636"
"8220DB001218","Belcamp Lane, stop 1218","53.3997058969251","-6.1842809197153"
"8220DB001219","Danieli Road, stop 1219","53.3813021270913","-6.2083343920684"
"8220DB001220","Killester Avenue, stop 1220","53.3787625062963","-6.21219890153812"
"8220DB001221","Mayfield Park, stop 1221","53.3768165000746","-6.21609825408432"
"8220DB001222","Ardlea Road, stop 1222","53.3840661618381","-6.20685028183386"
"8220DB001223","Chanel Avenue, stop 1223","53.3852506198797","-6.20851435239846"
"8220DB001224","Maryfield Crescent, stop 1224","53.3866441577972","-6.21093649115348"
"8220DB001225","Maryfield Drive, stop 1225","53.386859379217","-6.21390426931247"
"8220DB001226","Ardmore Drive, stop 1226","53.3885824619193","-6.21492967615912"
"8220DB001227","Castlekevin Road, stop 1227","53.3911373107668","-6.21507836605143"
"8220DB001228","Kilbarron Road, stop 1228","53.3924289765026","-6.21851273726681"
"8220DB001229","Kilbarron Drive, stop 1229","53.3943116011738","-6.22542628929809"
"8220DB001231","Castletimon Road, stop 1231","53.3954889982952","-6.22784342643992"
"8220DB001232","Castletimon Park, stop 1232","53.3952854835275","-6.23048341001443"
"8220DB001233","Castletimon Drive, stop 1233","53.3943619874017","-6.23124350090553"
"8220DB001234","Ballyshannon Avenue, stop 1234","53.3946878729395","-6.23261339665838"
"8220DB001235","Kilbarron Road, stop 1235","53.3947366847022","-6.22560408418948"
"8220DB001237","Cromcastle Avenue, stop 1237","53.3926786800006","-6.2189834723011"
"8220DB001238","Kilmore Avenue, stop 1238","53.3915662233617","-6.21491005695044"
"8220DB001239","St John of Gods NS, stop 1239","53.3890041898569","-6.21488195784464"
"8220DB001240","Maryfield Crescent, stop 1240","53.3868184280309","-6.21116973233947"
"8220DB001241","Chanel Avenue, stop 1241","53.3858794293715","-6.20908930804691"
"8220DB001242","Ardbeg Road, stop 1242","53.3844919489066","-6.2070729228125"
"8220DB001243","Greencastle Avenue, stop 1243","53.3949003131496","-6.19991374132285"
"8220DB001244","Cromcastle Green, stop 1244","53.3929072416209","-6.22044750297315"
"8220DB001245","Glin Avenue, stop 1245","53.3979972686918","-6.20621940955615"
"8220DB001246","Kilbarron Park, stop 1246","53.3934932334641","-6.22297928856429"
"8220DB001247","Greencastle Road, stop 1247","53.3950810945078","-6.19998129722475"
"8220DB001248","Coolock Ind Estate, stop 1248","53.3929893358623","-6.1971675233716"
"8220DB001249","Coolock Drive, stop 1249","53.395180964897","-6.20124021736032"
"8220DB001250","Bunratty Road, stop 1250","53.3937390061016","-6.20755634582152"
"8220DB001251","St Luke's Church, stop 1251","53.3934573359116","-6.22237931759755"
"8220DB001252","Kilmore Road, stop 1252","53.3936380323028","-6.21461282858828"
"8220DB001253","Tranquility Grove, stop 1253","53.3938639430734","-6.21469359247888"
"8220DB001254","Bunratty Road, stop 1254","53.3951173598318","-6.21136299643058"
"8220DB001255","Adare Park, stop 1255","53.3943535024698","-6.20897407318865"
"8220DB001256","Bunratty Avenue, stop 1256","53.3936309457732","-6.20694437999337"
"8220DB001258","Priorswood Road, stop 1258","53.3981874224997","-6.19082713583407"
"8220DB001259","The Link Road, stop 1259","53.3985904097534","-6.19488548450877"
"8220DB001260","Ferrycarrig Green, stop 1260","53.4001778029103","-6.19881868347097"
"8220DB001262","Moat Avenue, stop 1262","53.4020042292143","-6.20490781615746"
"8220DB001265","Marigold Avenue, stop 1265","53.398221529722","-6.19070538139183"
"8220DB001266","Priorswood Road, stop 1266","53.4020554115162","-6.20472518436224"
"8220DB001267","Ferrycarrig Park, stop 1267","53.4008555065983","-6.20024887014065"
"8220DB001268","Belcamp Avenue, stop 1268","53.399894267545","-6.19789824293475"
"8220DB001269","Marigold Road, stop 1269","53.3984289595186","-6.19371931703876"
"8220DB001270","Newtown Road, stop 1270","53.3964970026804","-6.18722962380558"
"8220DB001272","Newtown Cottages, stop 1272","53.3928823822332","-6.19187918573735"
"8220DB001273","Coolock Leisureplex, stop 1273","53.3911092146034","-6.19527728871211"
"8220DB001274","St Brendans Church, stop 1274","53.3889388170324","-6.19797019366675"
"8220DB001275","Mask Avenue, stop 1275","53.385585765333","-6.20211085795637"
"8220DB001276","Mask Park, stop 1276","53.3843305541152","-6.20291542866147"
"8220DB001277","Mornington Grove, stop 1277","53.3826814602086","-6.2062169636168"
"8220DB001278","College Green, stop 1278","53.3442366224365","-6.26130011810001"
"8220DB001279","College Green, stop 1279","53.3442604935982","-6.26170466649099"
"8220DB001280","McKelvey Avenue, stop 1280","53.4001962883511","-6.30314329259751"
"8220DB001282","S Great George's St, stop 1282","53.3423417958814","-6.26450108272727"
"8220DB001283","S Great George's St, stop 1283","53.3418087219088","-6.26492822950029"
"8220DB001284","Redmond's Hill, stop 1284","53.3381283509689","-6.26587355723321"
"8220DB001285","Camden Street Lower, stop 1285","53.3343784055905","-6.26512475425716"
"8220DB001286","Harrington Street, stop 1286","53.3324996495011","-6.26572653484075"
"8220DB001287","Synge Street, stop 1287","53.3324783725652","-6.26611779066566"
"8220DB001288","Victoria Street, stop 1288","53.3323227536349","-6.2696376223493"
"8220DB001289","Longwood Avenue, stop 1289","53.3321293613202","-6.27303883277022"
"8220DB001290","Clanbrassil St Upper, stop 1290","53.3307310456567","-6.27516731880569"
"8220DB001291","Harold's Cross Road, stop 1291","53.3284466111575","-6.27631044140605"
"8220DB001292","Harold's Cross Park, stop 1292","53.3256246051373","-6.27819570402239"
"8220DB001293","Parkview Avenue, stop 1293","53.3228603639143","-6.2791026297328"
"8220DB001294","Lady of the Rosary, stop 1294","53.3206000262763","-6.27880330627749"
"8220DB001295","Kenilworth Park, stop 1295","53.3179148923088","-6.27958681712629"
"8220DB001296","Mount Tallant Avenue, stop 1296","53.3155627461367","-6.28164762292474"
"8220DB001297","Whitton Road, stop 1297","53.3124096124198","-6.28238961414191"
"8220DB001298","Terenure, stop 1298","53.3107469924743","-6.28302665100765"
"8220DB001299","Rathfarnham Road, stop 1299","53.308395702782","-6.28390135641409"
"8220DB001300","Rathdown Park, stop 1300","53.3061507463875","-6.28342117670719"
"8220DB001335","War Memorial Hall, stop 1335","53.3074174243568","-6.28400061997859"
"8220DB001336","Terenure, stop 1336","53.3089009059773","-6.28403115972443"
"8220DB001337","Terenure Road North, stop 1337","53.3111790373761","-6.28306934104816"
"8220DB001338","Whitton Road, stop 1338","53.3124303862649","-6.28258388430714"
"8220DB001339","Harold's Cross Road, stop 1339","53.3150238623425","-6.28229964697711"
"8220DB001340","Mount Tallant Avenue, stop 1340","53.3164701422733","-6.28099578090545"
"8220DB001341","Kenilworth Park, stop 1341","53.319227589464","-6.27899363575731"
"8220DB001342","Lady of the Rosary, stop 1342","53.3213454991002","-6.27938875924035"
"8220DB001343","Harold's Cross Park, stop 1343","53.3226672850436","-6.27942564411735"
"8220DB001344","St Claire's NS, stop 1344","53.3271710643832","-6.27760796335834"
"8220DB001345","Le Vere Terrace, stop 1345","53.3287960763055","-6.27623629638877"
"8220DB001347","Clanbrassil St Upper, stop 1347","53.3311830098588","-6.27534427274465"
"8220DB001348","Spencer St South, stop 1348","53.3322495353642","-6.27388983282417"
"8220DB001349","Carlisle Street, stop 1349","53.3323857279067","-6.27088132287852"
"8220DB001350","Harrington Street, stop 1350","53.3325610927835","-6.26748081181982"
"8220DB001352","Camden Street Lower, stop 1352","53.3344454316098","-6.26540733380824"
"8220DB001353","Pleasants Street, stop 1353","53.3360095336323","-6.26541893799962"
"8220DB001354","Aungier Street, stop 1354","53.3390480888895","-6.26607651485756"
"8220DB001355","Whitefriars Street, stop 1355","53.3400962425911","-6.26583875541442"
"8220DB001357","Exchequer Street, stop 1357","53.342567894408","-6.26459703020812"
"8220DB001358","Dame Street, stop 1358","53.3443047133873","-6.26288938939078"
"8220DB001359","College Green, stop 1359","53.3443994063637","-6.26136859043361"
"8220DB001360","Raymond Street, stop 1360","53.3319833877872","-6.27661827752548"
"8220DB001362","National Stadium, stop 1362","53.3312039603929","-6.2799078735222"
"8220DB001363","St Anne's Road S, stop 1363","53.3318459312232","-6.2851672650217"
"8220DB001364","Dolphin Avenue, stop 1364","53.3323458739442","-6.28806012034702"
"8220DB001365","Dolphins Barn Church, stop 1365","53.3329015319263","-6.29045531304387"
"8220DB001366","St Andrews Centre, stop 1366","53.3351498676865","-6.29431459059535"
"8220DB001367","Rialto Church, stop 1367","53.3356852929589","-6.29656066348709"
"8220DB001369","Mayfield Road, stop 1369","53.3388672150275","-6.30224552041048"
"8220DB001370","Hybreasal House, stop 1370","53.3391885808018","-6.3052512455659"
"8220DB001371","Suir Road, stop 1371","53.3388757387437","-6.30790668870986"
"8220DB001372","Goldenbridge Avenue, stop 1372","53.3381036945503","-6.30987444642342"
"8220DB001373","Stephen's Road, stop 1373","53.3377747591139","-6.31203486545014"
"8220DB001374","Southern Cross Ave, stop 1374","53.3392177102615","-6.31301407116768"
"8220DB001375","Bulfin Road, stop 1375","53.3395561606235","-6.31215973185628"
"8220DB001376","South Circular Road, stop 1376","53.3395079105879","-6.30875267180085"
"8220DB001377","South Circular Road, stop 1377","53.3391633646071","-6.30474165527077"
"8220DB001378","Mayfield Road, stop 1378","53.3388278749061","-6.30137608273123"
"8220DB001379","Rialto Luas, stop 1379","53.3373397013539","-6.29912265320936"
"8220DB001380","Rialto Church, stop 1380","53.3356410022647","-6.29597679911966"
"8220DB001381","St Andrews Centre, stop 1381","53.3351237466286","-6.29374502629878"
"8220DB001382","Dolphins Barn Church, stop 1382","53.3331731706723","-6.29059460205889"
"8220DB001383","Dolphin Avenue, stop 1383","53.3322710783564","-6.28660666292568"
"8220DB001384","Dufferin Avenue, stop 1384","53.3313561981853","-6.28236415375612"
"8220DB001385","Griffith College, stop 1385","53.3318004002752","-6.27826227183304"
"8220DB001386","Clogher Road, stop 1386","53.3295526186293","-6.28444849901101"
"8220DB001387","Aughavanagh Road, stop 1387","53.3280405493699","-6.28680623917289"
"8220DB001388","Rutland Avenue, stop 1388","53.3267732721488","-6.29119578868491"
"8220DB001389","Pearse College, stop 1389","53.3259359420551","-6.29549287147593"
"8220DB001391","Clonmacnoise Road, stop 1391","53.3228221151094","-6.29836412349907"
"8220DB001392","Bangor Circle, stop 1392","53.322491015169","-6.30161978617072"
"8220DB001394","Ferns Road, stop 1394","53.3237430594682","-6.29676623092551"
"8220DB001395","Sundrive Road, stop 1395","53.324733957113","-6.29629140292407"
"8220DB001396","Crumlin Pool, stop 1396","53.3249002682397","-6.31496013722762"
"8220DB001397","Kildare Road, stop 1397","53.3250914014158","-6.31385670005281"
"8220DB001398","Windmill Road, stop 1398","53.3253013793664","-6.31027545066514"
"8220DB001399","Monasterboice Road, stop 1399","53.3251428005791","-6.3054327031037"
"8220DB001400","Bangor Circle, stop 1400","53.3236248160134","-6.29981835985765"
"8220DB001401","Clogher Road, stop 1401","53.3253968158949","-6.29865198476896"
"8220DB001402","Pearse College, stop 1402","53.3259879311191","-6.29598621972534"
"8220DB001403","Rutland Avenue, stop 1403","53.3271540648883","-6.28954413336682"
"8220DB001404","Aughavanagh Road, stop 1404","53.3282005181194","-6.28667972051605"
"8220DB001405","Parnell Road, stop 1405","53.3298216746258","-6.28440767368214"
"8220DB001406","Dolphin's Barn, stop 1406","53.3331529314539","-6.29169152684095"
"8220DB001407","Crumlin Road, stop 1407","53.3315385027721","-6.2944436769088"
"8220DB001409","Loreto College, stop 1409","53.3303667447669","-6.29735815557584"
"8220DB001410","Keeper Road, stop 1410","53.3314169223644","-6.29977873066411"
"8220DB001411","Brickfield Drive, stop 1411","53.3320510264275","-6.30328200417231"
"8220DB001412","Slievenamon Road, stop 1412","53.3326816543077","-6.30591464267832"
"8220DB001413","Brickfields Park, stop 1413","53.3334413912394","-6.30878249418879"
"8220DB001414","Benbulbin Road, stop 1414","53.3333476064743","-6.31231480140324"
"8220DB001415","Sperrin Road, stop 1415","53.3324432485395","-6.31637452092598"
"8220DB001417","Lady Of Mercy School, stop 1417","53.3310322127945","-6.31956811898513"
"8220DB001418","Cooley Road, stop 1418","53.330029759237","-6.32306077006054"
"8220DB001419","Brandon Road, stop 1419","53.3277177272266","-6.32291124306547"
"8220DB001421","Crumlin Hospital, stop 1421","53.324950765955","-6.32045266330107"
"8220DB001423","Crumlin Hospital, stop 1423","53.3249994890353","-6.31944492192624"
"8220DB001424","Crumlin Hospital, stop 1424","53.3256625125872","-6.31674662153121"
"8220DB001425","Cooley Road, stop 1425","53.3270131719777","-6.31819475352092"
"8220DB001426","Curlew Road, stop 1426","53.3292748788465","-6.32242977116858"
"8220DB001427","Mourne Road, stop 1427","53.330271158414","-6.32233061937903"
"8220DB001428","Lady of Mercy School, stop 1428","53.3313588786132","-6.31914988401264"
"8220DB001429","Sperrin Road, stop 1429","53.332593207169","-6.31617341926301"
"8220DB001430","Belbulbin Road, stop 1430","53.3335737954755","-6.31114968646874"
"8220DB001432","Brickfields Park, stop 1432","53.3334987403076","-6.30838982573814"
"8220DB001433","Slievenamon Road, stop 1433","53.3325721532017","-6.30579886199231"
"8220DB001434","Keeper Road, stop 1434","53.3319924475924","-6.3023233791527"
"8220DB001435","Keeper Road, stop 1435","53.3313880462705","-6.29901413246611"
"8220DB001436","Herberton Road, stop 1436","53.3308849576952","-6.29651171993402"
"8220DB001438","St Thomas Road, stop 1438","53.3363829768561","-6.27941413618381"
"8220DB001439","Rutledge Terrace, stop 1439","53.3340584156818","-6.28276609921306"
"8220DB001440","Donore Avenue, stop 1440","53.3319900593827","-6.28331465216842"
"8220DB001441","Bangor Road, stop 1441","53.3248749009922","-6.30302633322182"
"8220DB001442","Clonard Road, stop 1442","53.3251668742259","-6.30712815477075"
"8220DB001443","Civic Offices, stop 1443","53.3451293906946","-6.26953955862604"
"8220DB001444","Merchant's Quay, stop 1444","53.3450755916898","-6.27451319656612"
"8220DB001445","Usher's Quay, stop 1445","53.3459879474282","-6.27980838755496"
"8220DB001447","Victoria Quay, stop 1447","53.3465025271141","-6.28558538591734"
"8220DB001449","Phoenix Park Gate, stop 1449","53.348152829997","-6.29789609467717"
"8220DB001450","Conyngham Road, stop 1450","53.3481554042365","-6.30186141311765"
"8220DB001451","Bridgewater House, stop 1451","53.3482782789373","-6.30544644496584"
"8220DB001452","Islandbridge, stop 1452","53.3454209055027","-6.30803799944731"
"8220DB001453","Galtymore Road, stop 1453","53.3345361691524","-6.30675710143034"
"8220DB001454","Suir Road Luas, stop 1454","53.3377648667264","-6.30753019851207"
"8220DB001455","Slievenamon Road, stop 1455","53.3353851151121","-6.30577746031333"
"8220DB001456","Good Counsel GAA, stop 1456","53.3348733091399","-6.30898110692308"
"8220DB001457","Benbulbin Road, stop 1457","53.3353026587009","-6.31264303832715"
"8220DB001458","Davitt House, stop 1458","53.3347706199242","-6.31697357484939"
"8220DB001459","Drimnagh CU, stop 1459","53.3340633154275","-6.3197192372277"
"8220DB001460","Carrow Road, stop 1460","53.3323561008265","-6.32103258420219"
"8220DB001462","Galtymore Park, stop 1462","53.3304629315901","-6.3238245198261"
"8220DB001463","Galtymore Road, stop 1463","53.3306239948605","-6.3237731617296"
"8220DB001464","Davitt House, stop 1464","53.33489880154","-6.31650303670365"
"8220DB001465","Good Counsel GAA, stop 1465","53.3347967644646","-6.30865378723672"
"8220DB001466","Galtymore Drive, stop 1466","53.3345289258302","-6.30624685358973"
"8220DB001467","Slievenamon Road, stop 1467","53.3356573760253","-6.3059618778838"
"8220DB001468","Suir Road Luas, stop 1468","53.3375497001774","-6.30756875280577"
"8220DB001469","Benbulbin Road, stop 1469","53.3352591593221","-6.31338053815388"
"8220DB001471","Islandbridge, stop 1471","53.3455323202016","-6.30828892049287"
"8220DB001472","Conyngham Road, stop 1472","53.3484294679803","-6.30596616966109"
"8220DB001473","Phoenix Park Gate, stop 1473","53.348305978475","-6.29855089897711"
"8220DB001474","Parkgate Street, stop 1474","53.3479479159606","-6.29236170464089"
"8220DB001476","Sarsfield Quay, stop 1476","53.3470736855785","-6.28467627539544"
"8220DB001478","Four Courts, stop 1478","53.3456082018192","-6.27280948087176"
"8220DB001479","Ormond Quay Upper, stop 1479","53.3459880936241","-6.26863362845988"
"8220DB001480","Ormond Quay Upper, stop 1480","53.3457659646548","-6.2706702977241"
"8220DB001481","Melrose Avenue, stop 1481","53.3650538686145","-6.23989609720876"
"8220DB001482","Marino Institute, stop 1482","53.3717085781546","-6.23648064555364"
"8220DB001484","Philipsburgh Avenue, stop 1484","53.3636977091106","-6.23996702932875"
"8220DB001485","Philipsburgh Avenue, stop 1485","53.3640458177018","-6.23980241692241"
"8220DB001486","Morrogh Terrace, stop 1486","53.3709747783061","-6.238524809022"
"8220DB001487","Marino Institute, stop 1487","53.3718192548952","-6.23667144996368"
"8220DB001488","Turlogh Parade, stop 1488","53.3710888554265","-6.23468777023618"
"8220DB001489","Marino Church, stop 1489","53.3701586652352","-6.2319610076023"
"8220DB001490","Árd Scoil Rís, stop 1490","53.3688768216928","-6.22855766174823"
"8220DB001491","Griffith Avenue, stop 1491","53.3684677618883","-6.22764290979832"
"8220DB001492","Marino Church, stop 1492","53.3702573904224","-6.23255805716228"
"8220DB001493","Turlogh Parade, stop 1493","53.3712134044616","-6.23520862720412"
"8220DB001494","Croydon Park, stop 1494","53.3706730149288","-6.23574194163247"
"8220DB001495","Croydon Park Avenue, stop 1495","53.3687559405712","-6.23556569739483"
"8220DB001496","Marino Green, stop 1496","53.3671481166151","-6.23381383826087"
"8220DB001499","Brian Road, stop 1499","53.3657794887098","-6.23729658684479"
"8220DB001500","Connolly, stop 1500","53.351039588906","-6.25016257775473"
"8220DB001505","Parnell Street, stop 1505","53.3540289631842","-6.25789698487135"
"8220DB001506","Finglas Road, stop 1506","53.3667778214189","-6.27237390919524"
"8220DB001507","St Vincent's School, stop 1507","53.3683905203143","-6.27450269164134"
"8220DB001508","Glasnevin Cemetery, stop 1508","53.3699109022656","-6.27833355115676"
"8220DB001509","Slaney Road, stop 1509","53.3729258340444","-6.28422366048827"
"8220DB001510","Ballyboggan Road, stop 1510","53.3769069295235","-6.28731023718707"
"8220DB001511","Tolka Vale, stop 1511","53.3782345231803","-6.28775298457063"
"8220DB001512","Prospect Hill, stop 1512","53.382174322341","-6.29172883549392"
"8220DB001513","Saint Martin's, stop 1513","53.3867674339432","-6.29677680332901"
"8220DB001514","Drogheda Mall, stop 1514","53.3894651562236","-6.30002191446055"
"8220DB001515","Marino Park, stop 1515","53.366114316144","-6.23319541821684"
"8220DB001518","Kildonan Road, stop 1518","53.3906003885119","-6.31161412406024"
"8220DB001519","Kildonan Park, stop 1519","53.3924448695621","-6.31175161798522"
"8220DB001520","Barry Road, stop 1520","53.393920198927","-6.31184358657781"
"8220DB001521","Plunkett Green, stop 1521","53.3972212992992","-6.31075049408939"
"8220DB001523","Plunkett Avenue, stop 1523","53.3978788506155","-6.30958155709758"
"8220DB001524","Barry Road, stop 1524","53.3955562648948","-6.31059088714385"
"8220DB001525","Casement Drive, stop 1525","53.3940692958025","-6.31158206161735"
"8220DB001526","Kildonan Park, stop 1526","53.3923069370332","-6.31153153662505"
"8220DB001528","St David's Terrace, stop 1528","53.3561954281573","-6.29400002572947"
"8220DB001529","Finglas Village, stop 1529","53.3884588269294","-6.29815260689773"
"8220DB001530","Finglas Road, stop 1530","53.3869194998665","-6.29672562964289"
"8220DB001531","Clearwater SC, stop 1531","53.3837436640296","-6.29336474093081"
"8220DB001532","Prospect Hill, stop 1532","53.3817441172312","-6.29055850090001"
"8220DB001533","Tolka Vale, stop 1533","53.3789678847602","-6.28749808800206"
"8220DB001534","Ballyboggan Road, stop 1534","53.3753328391602","-6.28597560287492"
"8220DB001535","The Willows, stop 1535","53.3723059581397","-6.28236994393795"
"8220DB001536","Glasnevin Cemetery, stop 1536","53.3695033971709","-6.27687723281354"
"8220DB001537","St Vincent's School, stop 1537","53.3680662049802","-6.27320839893696"
"8220DB001538","Clearwater SC, stop 1538","53.384474141314","-6.29479375491459"
"8220DB001539","Glasanaon Road, stop 1539","53.3831357990682","-6.27919801572368"
"8220DB001540","Johnstown Park, stop 1540","53.3843403099797","-6.28420062884392"
"8220DB001547","McKee Avenue Est, stop 1547","53.395241165818","-6.30168636640579"
"8220DB001548","McKee Avenue North, stop 1548","53.3961101450127","-6.3027494932783"
"8220DB001549","Plunkett Road, stop 1549","53.3974326561143","-6.30663678307133"
"8220DB001558","McKelvey Avenue, stop 1558","53.3998175109952","-6.30305309451753"
"8220DB001559","Plunkett Road, stop 1559","53.3973411212982","-6.30652011500245"
"8220DB001560","St Margaret's Road, stop 1560","53.3970075423561","-6.30454838145874"
"8220DB001566","Johnstown Park, stop 1566","53.3844074206099","-6.28386719661227"
"8220DB001567","Griffith Drive, stop 1567","53.3840139569899","-6.28026002177014"
"8220DB001573","Wellmount Drive, stop 1573","53.3840241647337","-6.31246066242428"
"8220DB001574","Cardiffsbridge SC, stop 1574","53.3855939979934","-6.31287964710483"
"8220DB001575","Coláiste Íde, stop 1575","53.3870661425734","-6.31274625802593"
"8220DB001576","Cappagh Road, stop 1576","53.3893174054929","-6.31304812471738"
"8220DB001577","Abbottstown Road, stop 1577","53.3898858080568","-6.31574701686641"
"8220DB001578","Ratoath Drive, stop 1578","53.3903851294561","-6.31801267740448"
"8220DB001584","Abbottstown Road, stop 1584","53.3898854600317","-6.31508548205004"
"8220DB001585","Cardiffsbridge Road, stop 1585","53.3887680197466","-6.31233314490443"
"8220DB001586","Coláiste Íde, stop 1586","53.3865250406216","-6.31261731806409"
"8220DB001587","Wellmount Drive, stop 1587","53.383466430316","-6.31179120650066"
"8220DB001591","Wellmount Road, stop 1591","53.3871387918549","-6.29949821324408"
"8220DB001592","Tolka Valley Road, stop 1592","53.3797209189472","-6.28924160522579"
"8220DB001593","Tolka Valley Park, stop 1593","53.3789147733968","-6.29445974940208"
"8220DB001594","St Helena's Road, stop 1594","53.3807131944326","-6.29766484522035"
"8220DB001596","St Malachy's NS, stop 1596","53.3830410953037","-6.30081905725311"
"8220DB001597","Valeview Gardens, stop 1597","53.3804552155962","-6.30923466596558"
"8220DB001598","Valeview Drive, stop 1598","53.380242178032","-6.30562044005666"
"8220DB001599","Cardiffsbridge Road, stop 1599","53.3808997507127","-6.31079541615781"
"8220DB001600","Deanstown Avenue, stop 1600","53.3835970178885","-6.31276318351177"
"8220DB001601","Deanstown Drive, stop 1601","53.383894313475","-6.31472076129323"
"8220DB001602","Patrician College, stop 1602","53.384418003168","-6.31871395727276"
"8220DB001603","Ratoath Road, stop 1603","53.3835188568862","-6.31868925643623"
"8220DB001604","Rathvilly Road, stop 1604","53.3837454770678","-6.31627504223629"
"8220DB001605","Albert College Pk, stop 1605","53.3882529721605","-6.26079959029375"
"8220DB001606","St Helena's Road, stop 1606","53.380370683578","-6.30644208983682"
"8220DB001607","Dunsink Drive, stop 1607","53.3821613835455","-6.30342464753533"
"8220DB001608","St Malachy's NS, stop 1608","53.3830498568553","-6.29954091872954"
"8220DB001609","Cloonlara, stop 1609","53.3803842380777","-6.29728713957771"
"8220DB001610","Tolka Valley Park, stop 1610","53.3788077072738","-6.29640307065506"
"8220DB001614","Church Street Upper, stop 1614","53.3512573878244","-6.27375276357377"
"8220DB001615","Church Street, stop 1615","53.3478271653639","-6.27459733233129"
"8220DB001616","St Michan's Church, stop 1616","53.3472850722963","-6.2750247730075"
"8220DB001617","Capuchin Church, stop 1617","53.3493312079573","-6.27480696433908"
"8220DB001618","Church Street Upper, stop 1618","53.350887058124","-6.27424841870736"
"8220DB001619","Constitution Hill, stop 1619","53.3529126950441","-6.27323519870157"
"8220DB001620","Whitehall Church, stop 1620","53.3832628572909","-6.24410591269657"
"8220DB001641","Ellenfield Park, stop 1641","53.3865272844368","-6.24239296645785"
"8220DB001642","Whitehall Church, stop 1642","53.383947889346","-6.24362672228704"
"8220DB001643","St Aidan's School, stop 1643","53.3848022173771","-6.25100309535714"
"8220DB001644","DCU Collins Avenue, stop 1644","53.3868700413861","-6.25657120617438"
"8220DB001646","DCU Collins Avenue, stop 1646","53.3871546494721","-6.25698053714177"
"8220DB001647","Blackhall Place, stop 1647","53.3483510635702","-6.28225172620266"
"8220DB001648","Stoneybatter, stop 1648","53.3510913675325","-6.28280248510498"
"8220DB001649","Manor Street, stop 1649","53.3525701350153","-6.28438044847899"
"8220DB001650","Castle Avenue, stop 1650","53.3611743870653","-6.20931427534305"
"8220DB001651","Vernon Avenue, stop 1651","53.3679404066314","-6.19485933423541"
"8220DB001652","Clontarf Castle, stop 1652","53.3633555860155","-6.20612742264052"
"8220DB001654","St David's Terrace, stop 1654","53.3561451797316","-6.29425742995527"
"8220DB001655","Blackhorse Avenue, stop 1655","53.3567321718491","-6.2969682741151"
"8220DB001656","McKee Park, stop 1656","53.3572972790023","-6.29877863774799"
"8220DB001657","Dunard Walk, stop 1657","53.3583921080657","-6.30307699923697"
"8220DB001658","Skreen Road, stop 1658","53.3619888217461","-6.309515187906"
"8220DB001659","Croaghpatrick Road, stop 1659","53.3632599650514","-6.30471669903598"
"8220DB001660","Cabra Garda Station, stop 1660","53.3651865517894","-6.30937355306513"
"8220DB001661","Our Lady's Church, stop 1661","53.3664436172429","-6.31309553779383"
"8220DB001662","Baggot Road, stop 1662","53.3676029376041","-6.31754290494094"
"8220DB001664","Ashtown Grove, stop 1664","53.3694085180304","-6.32385863047436"
"8220DB001665","Kempton, stop 1665","53.3706578377553","-6.32770193003476"
"8220DB001666","Ashtown Roundabout, stop 1666","53.3715971506497","-6.33059573112205"
"8220DB001667","Castleknock Road, stop 1667","53.3708697670492","-6.334501519476"
"8220DB001668","Old Race Course, stop 1668","53.3708427403695","-6.34030355015355"
"8220DB001694","Old Race Course, stop 1694","53.3710173888675","-6.33993607589944"
"8220DB001695","Ashtown Gate, stop 1695","53.3710101423775","-6.33425558646772"
"8220DB001696","Ashtown Roundabout, stop 1696","53.3715415173194","-6.32983144331408"
"8220DB001697","Kempton, stop 1697","53.3708011457473","-6.32766625894212"
"8220DB001698","Ashtown Grove, stop 1698","53.3695772972038","-6.32371675132506"
"8220DB001699","Baggot Road, stop 1699","53.3687436056737","-6.32131499536444"
"8220DB001700","Baggot Road, stop 1700","53.3677088280588","-6.31740348546712"
"8220DB001701","Our Lady's Church, stop 1701","53.3665672561436","-6.31294038272438"
"8220DB001702","Navan Road Church, stop 1702","53.3656108301747","-6.3101381385887"
"8220DB001703","Cabra Garda Station, stop 1703","53.3647353990233","-6.30734783376237"
"8220DB001704","Skreen Road, stop 1704","53.3630522662101","-6.30528089867264"
"8220DB001705","Ardpatrick Road, stop 1705","53.3621807471622","-6.30847083369407"
"8220DB001706","Blackhorse Avenue, stop 1706","53.3600698256017","-6.30729237527241"
"8220DB001707","Dunard Walk, stop 1707","53.358428266351","-6.30245957267127"
"8220DB001708","Mc Kee Park, stop 1708","53.3573323544768","-6.29871714548449"
"8220DB001709","Glenbeigh Avenue, stop 1709","53.356868201679","-6.29705299143723"
"8220DB001710","Aughrim Street, stop 1710","53.3555699040276","-6.29174149147943"
"8220DB001711","Holy Family Church, stop 1711","53.3545779754912","-6.28963290156867"
"8220DB001712","Aughrim Court, stop 1712","53.3533339170054","-6.2862425917638"
"8220DB001713","Manor Street, stop 1713","53.3519078200192","-6.28332547345319"
"8220DB001714","Stoneybatter, stop 1714","53.3506378069393","-6.28188938800197"
"8220DB001715","Blackhall Place, stop 1715","53.3477119821806","-6.28218729951852"
"8220DB001724","Clontarf Road, stop 1724","53.3657153153797","-6.17444158948892"
"8220DB001725","Doyle's Lane, stop 1725","53.3637602626945","-6.17707965691359"
"8220DB001726","Dollymount Park, stop 1726","53.3622913896707","-6.17918587611657"
"8220DB001727","Bull Island, stop 1727","53.3604468636668","-6.18318608956806"
"8220DB001728","Wooden Bridge, stop 1728","53.3596562743577","-6.18616459625125"
"8220DB001729","Clontarf Bus Garage, stop 1729","53.3584969058401","-6.19031550974047"
"8220DB001730","Vernon Court, stop 1730","53.3582310907444","-6.19412792894385"
"8220DB001731","John the Baptist Ch, stop 1731","53.3590767534218","-6.19655620427261"
"8220DB001732","Oultan Road, stop 1732","53.3600629107631","-6.20234423812548"
"8220DB001733","Clontarf Baths, stop 1733","53.3602126155175","-6.20631955975872"
"8220DB001734","Castle Avenue, stop 1734","53.3603909611143","-6.21101490848604"
"8220DB001735","The Stiles Road, stop 1735","53.3611433270935","-6.21443920712782"
"8220DB001736","St Lawrence Road, stop 1736","53.3621421815557","-6.21692174662779"
"8220DB001737","Alfie Byrne Road, stop 1737","53.3628580243677","-6.21971672090969"
"8220DB001738","Clontarf Rd Pitches, stop 1738","53.3634508756384","-6.22391433414585"
"8220DB001739","Clontarf Station, stop 1739","53.3638851946336","-6.22652585924785"
"8220DB001740","Clontarf Road, stop 1740","53.3641416167489","-6.22684578734125"
"8220DB001741","Alfie Byrne Road, stop 1741","53.3631169030887","-6.22080282346908"
"8220DB001742","St Lawrence Road, stop 1742","53.3621257933182","-6.21642658486156"
"8220DB001743","The Court, stop 1743","53.3611356864334","-6.21392866651192"
"8220DB001744","Scoil Uí Chonaill, stop 1744","53.3603486398978","-6.20879297700673"
"8220DB001745","Clontarf Baths, stop 1745","53.3603470796637","-6.2056978849681"
"8220DB001746","Oultan Road, stop 1746","53.3602565190504","-6.20266663792756"
"8220DB001747","John the Baptist Ch, stop 1747","53.3593509922763","-6.19686014145269"
"8220DB001748","Fortview Avenue, stop 1748","53.3582570201159","-6.19346576182185"
"8220DB001749","Clontarf Bus Garage, stop 1749","53.3585903733516","-6.19055194015273"
"8220DB001750","St Anne's Park, stop 1750","53.3688677027289","-6.17780832862961"
"8220DB001751","Wooden Bridge, stop 1751","53.3598698762831","-6.1854343270318"
"8220DB001752","Bull Island, stop 1752","53.36112759171","-6.18184991858559"
"8220DB001753","Dollymount Park, stop 1753","53.36272396285","-6.17867157318106"
"8220DB001754","Doyle's Lane, stop 1754","53.364115656472","-6.17680903357462"
"8220DB001755","Seapark, stop 1755","53.3664299769752","-6.18712407524484"
"8220DB001756","Dollymount Avenue, stop 1756","53.3672099080456","-6.18285319862781"
"8220DB001757","Park Lawn, stop 1757","53.3686296418903","-6.18223672762254"
"8220DB001758","Mount Prospect Ave, stop 1758","53.3681296759045","-6.17539029232819"
"8220DB001759","The Oaks, stop 1759","53.3660002227331","-6.17426410843024"
"8220DB001760","Seapark Road, stop 1760","53.3659722446543","-6.18775962192302"
"8220DB001761","Seafield Road Junc, stop 1761","53.3638373979459","-6.18804557985461"
"8220DB001762","Seafield Road, stop 1762","53.3637511873709","-6.1912498353921"
"8220DB001763","Vernon Avenue, stop 1763","53.3644067789443","-6.19536937525232"
"8220DB001764","Blackheath Park, stop 1764","53.3658929687458","-6.19557704044876"
"8220DB001765","Blackheath Grove, stop 1765","53.3665514240828","-6.20228141366135"
"8220DB001766","Seafield Road West, stop 1766","53.3651160524269","-6.20485131647098"
"8220DB001767","Clontarf Castle, stop 1767","53.3638273181063","-6.20522105323386"
"8220DB001769","Park Lawn, stop 1769","53.3688857835725","-6.18194028646471"
"8220DB001770","Dollymount Avenue, stop 1770","53.3670834687822","-6.18281349818957"
"8220DB001771","St Gabriel's Road, stop 1771","53.3660419203349","-6.18524714015879"
"8220DB001772","Clontarf Cemetery, stop 1772","53.3650107475168","-6.20502103771957"
"8220DB001773","Blackheath Park, stop 1773","53.3668109134456","-6.20339753583727"
"8220DB001774","Blackheath Avenue, stop 1774","53.3661362371245","-6.19740006471556"
"8220DB001775","Vernon Avenue, stop 1775","53.364439983337","-6.1951876537006"
"8220DB001776","Seafield Road, stop 1776","53.3638160053906","-6.19196835160377"
"8220DB001777","Seafield Avenue, stop 1777","53.3653120792186","-6.19104846595943"
"8220DB001778","Mount Prospect Ave, stop 1778","53.3666136880735","-6.18915998517218"
"8220DB001782","Brookwood Grove, stop 1782","53.3823894993434","-6.19817165074127"
"8220DB001783","McAuley Road, stop 1783","53.3838032158953","-6.195962181655"
"8220DB001784","Gorsefield Court, stop 1784","53.3846209812862","-6.19298101335639"
"8220DB001785","McAuley Park, stop 1785","53.3825960633104","-6.1916236149297"
"8220DB001786","McAuley Park, stop 1786","53.381994136399","-6.19223540172869"
"8220DB001788","Millbrook Road, stop 1788","53.3916140510653","-6.17880643395268"
"8220DB001789","Clonrosse Drive, stop 1789","53.3942624574283","-6.17860311918013"
"8220DB001791","O'Tooles GAA, stop 1791","53.3965874453486","-6.18194749011514"
"8220DB001792","Millbrook Road, stop 1792","53.3935247615088","-6.17855943972049"
"8220DB001793","Milbrook Grove, stop 1793","53.3916843046749","-6.17869818119331"
"8220DB001794","Thornhill Lane, stop 1794","53.3694410695116","-6.17945199515191"
"8220DB001795","Rosecourt, stop 1795","53.3615033956249","-6.29686814224352"
"8220DB001796","McAuley Park, stop 1796","53.3817893455832","-6.19117676197816"
"8220DB001797","McAuley Drive, stop 1797","53.3831278453886","-6.19172134030198"
"8220DB001798","McAuley Road, stop 1798","53.3843839100412","-6.19453950864006"
"8220DB001799","Mask Crescent, stop 1799","53.3830586828386","-6.19665511759699"
"8220DB001800","Lady of Mercy Church, stop 1800","53.3823067907448","-6.1992424717112"
"8220DB001801","Brookwood Ave, stop 1801","53.3823969984415","-6.20224522816102"
"8220DB001802","Cabra Road, stop 1802","53.3613803234428","-6.29454414549559"
"8220DB001803","Cabra Road, stop 1803","53.3615635987059","-6.29416119396318"
"8220DB001804","Rosecourt, stop 1804","53.3616973947126","-6.29723603716654"
"8220DB001805","Dunard, stop 1805","53.3611627039101","-6.29755786085371"
"8220DB001806","Navan Road, stop 1806","53.3629069059108","-6.30264214209812"
"8220DB001807","Phoenix Park Avenue, stop 1807","53.37441446431","-6.33926288340452"
"8220DB001847","Old Racecourse, stop 1847","53.3729020091403","-6.33392626097365"
"8220DB001905","Skreen Road, stop 1905","53.363317546166","-6.30307659409079"
"8220DB001906","Old Cabra Road, stop 1906","53.3612007620224","-6.29707553938407"
"8220DB001907","Glenbeigh Road, stop 1907","53.3599049453552","-6.29382178508832"
"8220DB001908","Cabra Drive, stop 1908","53.3586907975506","-6.29125607276839"
"8220DB001909","Prussia Street, stop 1909","53.3569602631532","-6.28841072316952"
