stop_id,stop_name,stop_lat,stop_lon
"8220B111761","Westland Row Church, stop 111761","53.3426262483916","-6.25013166583778"
"8220B1351001","Wellington Quay, stop 135101","53.3458641751322","-6.26381729294167"
"8220B1351201","Connolly Station, stop 135121","53.3502180212944","-6.25052670165238"
"8220B1351401","George's Quay, stop 135141","53.34738269539","-6.25331643588362"
"8220B1353301","Dawson Street, stop 135331","53.3401343717174","-6.25858361137307"
"8220B1354001","Heuston Station, stop 135401","53.3458581867817","-6.29393218197987"
"8220DB000092","Ballymun Library, stop 92","53.3898373340536","-6.264674240361"
"8220DB000093","Gateway Avenue, stop 93","53.3923014677522","-6.26415297561009"
"8220DB000094","Civic Centre, stop 94","53.396034762414","-6.26437695995443"
"8220DB000102","Balbutcher Lane, stop 102","53.3977730701685","-6.26771985697008"
"8220DB000104","Poppintree Parade, stop 104","53.3997562075198","-6.27681294502523"
"8220DB000105","Belclare Park, stop 105","53.4029363966841","-6.28169269646944"
"8220DB000107","Crannogue Road, stop 107","53.4023798988012","-6.28049690990608"
"8220DB000110","Árd Na Meala, stop 110","53.3979386409638","-6.26860038147326"
"8220DB000112","Civic Centre, stop 112","53.3961544015487","-6.26395104030175"
"8220DB000113","Trinity Comp School, stop 113","53.3922679629287","-6.26370325464242"
"8220DB000114","Ballymun Road, stop 114","53.3913333220569","-6.26371122925232"
"8220DB000126","Nursing Home, stop 126","53.3990954666878","-6.2640869605604"
"8220DB000127","Nursing Home, stop 127","53.3991075304829","-6.26368042823967"
"8220DB000128","Glasnevin Avenue, stop 128","53.3892678697442","-6.26568972261112"
"8220DB000129","Glasnevin Drive, stop 129","53.3898903154498","-6.27142293606873"
"8220DB000130","Glasnevin Park, stop 130","53.390092012762","-6.27418126942501"
"8220DB000131","Willow Park Road, stop 131","53.3903858902648","-6.27834923697204"
"8220DB000132","Beneavin Park, stop 132","53.3905207424955","-6.28271912369816"
"8220DB000136","McKee Road, stop 136","53.3943802013917","-6.28985659650005"
"8220DB000137","Clancy Avenue, stop 137","53.3923167196326","-6.29263079481428"
"8220DB000138","St Canice's BNS, stop 138","53.3899950092694","-6.29180657264737"
"8220DB000139","Grove Park Road, stop 139","53.3906014624264","-6.28645971748868"
"8220DB000140","Beneavin Park, stop 140","53.3906344923664","-6.28250404674211"
"8220DB000141","Willow Park Road, stop 141","53.390445085094","-6.2780912446871"
"8220DB000142","Glasnevin Park, stop 142","53.3901982852644","-6.27407172195529"
"8220DB000143","Willow Park Avenue, stop 143","53.3898767084074","-6.26924336998015"
"8220DB000193","Finglas Park, stop 193","53.391196305981","-6.2941040348739"
"8220DB000206","Collins Avenue West, stop 206","53.3835460890355","-6.24747670792423"
"8220DB000212","Whitehall, stop 212","53.3831956351303","-6.24625839753317"
"8220DB000218","Shantalla Road, stop 218","53.3859238989727","-6.23378832411084"
"8220DB000220","Swords Road, stop 220","53.3879405396581","-6.24498084117378"
"8220DB000228","Shanliss Road, stop 228","53.3918773927815","-6.25971957291393"
"8220DB000233","Beaumont Road, stop 233","53.3858213105816","-6.23353699415897"
"8220DB000242","Coolgreena Road, stop 242","53.3856548985699","-6.23201042764994"
"8220DB000243","Lady of Mercy, stop 243","53.3857800608417","-6.22953967454693"
"8220DB000244","Skelly's Lane, stop 244","53.3849982136881","-6.22349851566411"
"8220DB000245","Whitethorn Crescent, stop 245","53.3844722444229","-6.21956660604606"
"8220DB000250","Skelly's Lane, stop 250","53.3844194499814","-6.2202453161013"
"8220DB000251","Elmount Crescent, stop 251","53.3848322787477","-6.22321978633306"
"8220DB000253","Beaumont Hospital, stop 253","53.3899625746441","-6.2242991422764"
"8220DB000255","Coolgreena Road, stop 255","53.3855938804217","-6.23153187241737"
"8220DB000316","Bachelors Walk, stop 316","53.3468926523477","-6.26222842032916"
"8220DB000341","South Townsend St, stop 341","53.3459803858313","-6.2563777403518"
"8220DB000375","Dromard Terrace, stop 375","53.3340611346546","-6.21438451306244"
"8220DB000385","Newgrove Avenue, stop 385","53.3323510231208","-6.21122768793997"
"8220DB000414","Lansdowne Road, stop 414","53.3315738058974","-6.23447321695269"
"8220DB000415","American Embassy, stop 415","53.3303378154095","-6.23294774966432"
"8220DB000416","RDS Ballsbridge, stop 416","53.3286399201201","-6.22936956914697"
"8220DB000417","Merrion Road, stop 417","53.3276995856533","-6.22597042048849"
"8220DB000486","RDS Ballsbridge, stop 486","53.3283287183676","-6.22899210119277"
"8220DB000487","American Embassy, stop 487","53.3308552893834","-6.23390230837204"
"8220DB000530","Killester, stop 530","53.3712245323475","-6.20402332968275"
"8220DB000608","Killester, stop 608","53.3710783844663","-6.20446531476556"
"8220DB000662","Clanmoyle Road, stop 662","53.3738704165821","-6.2126292751266"
"8220DB000663","Saint Peters School, stop 663","53.3747635383755","-6.21705581024778"
"8220DB000674","Parnell Park, stop 674","53.3746860705086","-6.21608209235959"
"8220DB000746","Kildare Street, stop 746","53.3401536166397","-6.25559428153346"
"8220DB000753","Waterloo Road, stop 753","53.3324533902718","-6.24352105457139"
"8220DB000754","Burlington Road, stop 754","53.330783782374","-6.24428032727376"
"8220DB000755","Wellington Lane, stop 755","53.3288280456981","-6.24514136798765"
"8220DB000760","Donnybrook Church, stop 760","53.318330187289","-6.23056195593035"
"8220DB000779","Waterloo Road, stop 779","53.3286887363318","-6.24544736264849"
"8220DB000780","Burlington Road, stop 780","53.3310633511706","-6.24434391821202"
"8220DB000781","Baggot Street, stop 781","53.3326262714266","-6.24366410261758"
"8220DB000846","Fitzwilliam Place, stop 846","53.3334537330024","-6.25411090847852"
"8220DB000849","Appian Way, stop 849","53.3278982725913","-6.24792700914128"
"8220DB000850","Chelmsford Road, stop 850","53.3260857395333","-6.25119903116792"
"8220DB000851","Chelmsford Road, stop 851","53.3250997052131","-6.25322101602938"
"8220DB000903","Chelmsford Road, stop 903","53.3255834292566","-6.25249565673739"
"8220DB000904","Appian Way, stop 904","53.3274174409139","-6.24884751574073"
"8220DB000956","Naomh Barróg GAA, stop 956","53.389831802114","-6.1529011457283"
"8220DB000958","St. Donagh's, stop 958","53.3909165331514","-6.16378528809514"
"8220DB000959","Grange Road, stop 959","53.3910184657041","-6.16690837598939"
"8220DB000960","Tonlegee Road, stop 960","53.3911576199048","-6.17187930562005"
"8220DB000961","Millwood Villas, stop 961","53.3910568299935","-6.17645454975119"
"8220DB000962","Limewood, stop 962","53.3907949286244","-6.18285597422979"
"8220DB000963","Rathvale, stop 963","53.3905102717887","-6.18659695896849"
"8220DB000964","St John's Church, stop 964","53.3900734007694","-6.19216365049833"
"8220DB000965","Malahide Road, stop 965","53.3888900839165","-6.196528881291"
"8220DB000966","Oscar Traynor Road, stop 966","53.3912154012214","-6.20291104884236"
"8220DB000967","Coolock Drive, stop 967","53.3922920610184","-6.20636914233891"
"8220DB000968","Armstrong Walk, stop 968","53.3937589536653","-6.21068316280386"
"8220DB000972","Aulden Grange, stop 972","53.3969960428868","-6.23492379932207"
"8220DB000979","St Canice's GNS, stop 979","53.3899538085915","-6.29710063600169"
"8220DB000980","Finglas Sports Centre, stop 980","53.3898045691491","-6.30303046268453"
"8220DB000981","Finglas Garda Stn, stop 981","53.3897809067965","-6.30706083246075"
"8220DB000983","Mellowes Road, stop 983","53.3901416743217","-6.31095569222059"
"8220DB000984","Finglas Garda Stn, stop 984","53.389911388028","-6.30675494955134"
"8220DB000985","Finglas Sports Centre, stop 985","53.3899247513554","-6.30389772523609"
"8220DB000987","Finglas, stop 987","53.3902199268642","-6.29937538551073"
"8220DB000988","St Canice's GNS, stop 988","53.3898902365438","-6.29579510810408"
"8220DB000993","Astro Park, stop 993","53.3977025969998","-6.22922517485573"
"8220DB000999","Coolock Drive, stop 999","53.3922410515313","-6.20596530798643"
"8220DB001000","Beechpark Avenue, stop 1000","53.3909830766831","-6.20180818492741"
"8220DB001001","Brookville Crescent, stop 1001","53.3900811211583","-6.19921499123024"
"8220DB001002","Tonlegee Road, stop 1002","53.389175499825","-6.19519371485565"
"8220DB001003","St John's Church, stop 1003","53.3902995343306","-6.19107150115651"
"8220DB001004","Rathvale, stop 1004","53.3906381577829","-6.18614044923742"
"8220DB001005","Limewood, stop 1005","53.390951406591","-6.18191708342303"
"8220DB001006","Millwood Villas, stop 1006","53.3911703560547","-6.17682559538361"
"8220DB001007","Millbrook Drive, stop 1007","53.3912462839681","-6.1723867296541"
"8220DB001008","Kilbarrack Road, stop 1008","53.3911267142933","-6.16693379574106"
"8220DB001009","St. Donagh's Road, stop 1009","53.391089075661","-6.16448455072235"
"8220DB001012","Naomh Barróg GAA, stop 1012","53.3902500117191","-6.15262742856293"
"8220DB001013","Earlsfort Terrace, stop 1013","53.335481505514","-6.25755688072012"
"8220DB001074","Harcourt Luas, stop 1074","53.333795459525","-6.26397720072462"
"8220DB001077","Rathmines Garda Stn, stop 1077","53.3215729885363","-6.26654498499206"
"8220DB001086","Terenure Road West, stop 1086","53.309669570517","-6.2856060830046"
"8220DB001087","Greenlea Rd, stop 1087","53.3103351137706","-6.28939126007516"
"8220DB001088","Parkmore Drive, stop 1088","53.3109735887857","-6.29317763255714"
"8220DB001089","Lavarna Grove, stop 1089","53.3116555855479","-6.29750266095145"
"8220DB001090","Kimmage Road West, stop 1090","53.3121038877678","-6.30057644060378"
"8220DB001117","Terenure Road West, stop 1117","53.3118906498603","-6.29822868798698"
"8220DB001118","Hazelbrook Road, stop 1118","53.3113669927809","-6.29491782827776"
"8220DB001119","Parkmore Drive, stop 1119","53.3109356902429","-6.29241376344748"
"8220DB001120","Terenure Garda Stn, stop 1120","53.3101981052315","-6.2879860593036"
"8220DB001196","Elm Mount Road, stop 1196","53.377787506988","-6.21491529560223"
"8220DB001197","Killester Avenue, stop 1197","53.3792322771541","-6.21175833300337"
"8220DB001220","Killester Avenue, stop 1220","53.3787625062963","-6.21219890153812"
"8220DB001221","Mayfield Park, stop 1221","53.3768165000746","-6.21609825408432"
"8220DB001228","Kilbarron Road, stop 1228","53.3924289765026","-6.21851273726681"
"8220DB001229","Kilbarron Drive, stop 1229","53.3943116011738","-6.22542628929809"
"8220DB001235","Kilbarron Road, stop 1235","53.3947366847022","-6.22560408418948"
"8220DB001237","Cromcastle Avenue, stop 1237","53.3926786800006","-6.2189834723011"
"8220DB001244","Cromcastle Green, stop 1244","53.3929072416209","-6.22044750297315"
"8220DB001246","Kilbarron Park, stop 1246","53.3934932334641","-6.22297928856429"
"8220DB001251","St Luke's Church, stop 1251","53.3934573359116","-6.22237931759755"
"8220DB001252","Kilmore Road, stop 1252","53.3936380323028","-6.21461282858828"
"8220DB001253","Tranquility Grove, stop 1253","53.3938639430734","-6.21469359247888"
"8220DB001286","Harrington Street, stop 1286","53.3324996495011","-6.26572653484075"
"8220DB001299","Rathfarnham Road, stop 1299","53.308395702782","-6.28390135641409"
"8220DB001300","Rathdown Park, stop 1300","53.3061507463875","-6.28342117670719"
"8220DB001335","War Memorial Hall, stop 1335","53.3074174243568","-6.28400061997859"
"8220DB001336","Terenure, stop 1336","53.3089009059773","-6.28403115972443"
"8220DB001350","Harrington Street, stop 1350","53.3325610927835","-6.26748081181982"
"8220DB001366","St Andrews Centre, stop 1366","53.3351498676865","-6.29431459059535"
"8220DB001367","Rialto Church, stop 1367","53.3356852929589","-6.29656066348709"
"8220DB001380","Rialto Church, stop 1380","53.3356410022647","-6.29597679911966"
"8220DB001381","St Andrews Centre, stop 1381","53.3351237466286","-6.29374502629878"
"8220DB001382","Dolphins Barn Church, stop 1382","53.3331731706723","-6.29059460205889"
"8220DB001391","Clonmacnoise Road, stop 1391","53.3228221151094","-6.29836412349907"
"8220DB001392","Bangor Circle, stop 1392","53.322491015169","-6.30161978617072"
"8220DB001394","Ferns Road, stop 1394","53.3237430594682","-6.29676623092551"
"8220DB001395","Sundrive Road, stop 1395","53.324733957113","-6.29629140292407"
"8220DB001400","Bangor Circle, stop 1400","53.3236248160134","-6.29981835985765"
"8220DB001406","Dolphin's Barn, stop 1406","53.3331529314539","-6.29169152684095"
"8220DB001407","Crumlin Road, stop 1407","53.3315385027721","-6.2944436769088"
"8220DB001409","Loreto College, stop 1409","53.3303667447669","-6.29735815557584"
"8220DB001421","Crumlin Hospital, stop 1421","53.324950765955","-6.32045266330107"
"8220DB001424","Crumlin Hospital, stop 1424","53.3256625125872","-6.31674662153121"
"8220DB001436","Herberton Road, stop 1436","53.3308849576952","-6.29651171993402"
"8220DB001512","Prospect Hill, stop 1512","53.382174322341","-6.29172883549392"
"8220DB001513","Saint Martin's, stop 1513","53.3867674339432","-6.29677680332901"
"8220DB001529","Finglas Village, stop 1529","53.3884588269294","-6.29815260689773"
"8220DB001530","Finglas Road, stop 1530","53.3869194998665","-6.29672562964289"
"8220DB001531","Clearwater SC, stop 1531","53.3837436640296","-6.29336474093081"
"8220DB001532","Prospect Hill, stop 1532","53.3817441172312","-6.29055850090001"
"8220DB001538","Clearwater SC, stop 1538","53.384474141314","-6.29479375491459"
"8220DB001573","Wellmount Drive, stop 1573","53.3840241647337","-6.31246066242428"
"8220DB001574","Cardiffsbridge SC, stop 1574","53.3855939979934","-6.31287964710483"
"8220DB001575","Coláiste Íde, stop 1575","53.3870661425734","-6.31274625802593"
"8220DB001576","Cappagh Road, stop 1576","53.3893174054929","-6.31304812471738"
"8220DB001577","Abbottstown Road, stop 1577","53.3898858080568","-6.31574701686641"
"8220DB001578","Ratoath Drive, stop 1578","53.3903851294561","-6.31801267740448"
"8220DB001584","Abbottstown Road, stop 1584","53.3898854600317","-6.31508548205004"
"8220DB001585","Cardiffsbridge Road, stop 1585","53.3887680197466","-6.31233314490443"
"8220DB001586","Coláiste Íde, stop 1586","53.3865250406216","-6.31261731806409"
"8220DB001587","Wellmount Drive, stop 1587","53.383466430316","-6.31179120650066"
"8220DB001592","Tolka Valley Road, stop 1592","53.3797209189472","-6.28924160522579"
"8220DB001593","Tolka Valley Park, stop 1593","53.3789147733968","-6.29445974940208"
"8220DB001594","St Helena's Road, stop 1594","53.3807131944326","-6.29766484522035"
"8220DB001596","St Malachy's NS, stop 1596","53.3830410953037","-6.30081905725311"
"8220DB001597","Valeview Gardens, stop 1597","53.3804552155962","-6.30923466596558"
"8220DB001598","Valeview Drive, stop 1598","53.380242178032","-6.30562044005666"
"8220DB001599","Cardiffsbridge Road, stop 1599","53.3808997507127","-6.31079541615781"
"8220DB001600","Deanstown Avenue, stop 1600","53.3835970178885","-6.31276318351177"
"8220DB001601","Deanstown Drive, stop 1601","53.383894313475","-6.31472076129323"
"8220DB001602","Patrician College, stop 1602","53.384418003168","-6.31871395727276"
"8220DB001603","Ratoath Road, stop 1603","53.3835188568862","-6.31868925643623"
"8220DB001604","Rathvilly Road, stop 1604","53.3837454770678","-6.31627504223629"
"8220DB001605","Albert College Pk, stop 1605","53.3882529721605","-6.26079959029375"
"8220DB001606","St Helena's Road, stop 1606","53.380370683578","-6.30644208983682"
"8220DB001607","Dunsink Drive, stop 1607","53.3821613835455","-6.30342464753533"
"8220DB001608","St Malachy's NS, stop 1608","53.3830498568553","-6.29954091872954"
"8220DB001609","Cloonlara, stop 1609","53.3803842380777","-6.29728713957771"
"8220DB001610","Tolka Valley Park, stop 1610","53.3788077072738","-6.29640307065506"
"8220DB001644","DCU Collins Avenue, stop 1644","53.3868700413861","-6.25657120617438"
"8220DB001646","DCU Collins Avenue, stop 1646","53.3871546494721","-6.25698053714177"
"8220DB001650","Castle Avenue, stop 1650","53.3611743870653","-6.20931427534305"
"8220DB001651","Vernon Avenue, stop 1651","53.3679404066314","-6.19485933423541"
"8220DB001652","Clontarf Castle, stop 1652","53.3633555860155","-6.20612742264052"
"8220DB001734","Castle Avenue, stop 1734","53.3603909611143","-6.21101490848604"
"8220DB001735","The Stiles Road, stop 1735","53.3611433270935","-6.21443920712782"
"8220DB001736","St Lawrence Road, stop 1736","53.3621421815557","-6.21692174662779"
"8220DB001737","Alfie Byrne Road, stop 1737","53.3628580243677","-6.21971672090969"
"8220DB001738","Clontarf Rd Pitches, stop 1738","53.3634508756384","-6.22391433414585"
"8220DB001741","Alfie Byrne Road, stop 1741","53.3631169030887","-6.22080282346908"
"8220DB001742","St Lawrence Road, stop 1742","53.3621257933182","-6.21642658486156"
"8220DB001743","The Court, stop 1743","53.3611356864334","-6.21392866651192"
"8220DB001764","Blackheath Park, stop 1764","53.3658929687458","-6.19557704044876"
"8220DB001765","Blackheath Grove, stop 1765","53.3665514240828","-6.20228141366135"
"8220DB001766","Seafield Road West, stop 1766","53.3651160524269","-6.20485131647098"
"8220DB001767","Clontarf Castle, stop 1767","53.3638273181063","-6.20522105323386"
"8220DB001773","Blackheath Park, stop 1773","53.3668109134456","-6.20339753583727"
"8220DB001774","Blackheath Avenue, stop 1774","53.3661362371245","-6.19740006471556"
"8220DB001945","Inchicore Library, stop 1945","53.3405547841713","-6.30968740041893"
"8220DB001948","Tyrconnell Road, stop 1948","53.3386619960493","-6.32204630155484"
"8220DB001956","Kylemore Luas, stop 1956","53.3263654179262","-6.34384709401733"
"8220DB001988","Hampton Court, stop 1988","53.3382603815023","-6.32288800493356"
"8220DB002101","Crumlin Hospital, stop 2101","53.3249545652181","-6.31817063885903"
"8220DB002102","Balfe Road, stop 2102","53.3241948460768","-6.32614190218009"
"8220DB002105","Walkinstown Parade, stop 2105","53.3236525793907","-6.337497077654"
"8220DB002181","Long Mile Road, stop 2181","53.3238376853479","-6.33917121398622"
"8220DB002182","Walkinstown Parade, stop 2182","53.3239619234595","-6.33518822198745"
"8220DB002185","Slievebloom Road, stop 2185","53.3242587027691","-6.32749048930551"
"8220DB002190","Dolphin's Barn, stop 2190","53.3327705719712","-6.2926077161978"
"8220DB002199","Glenaulin, stop 2199","53.3519682958563","-6.35590853399223"
"8220DB002200","Kylemore Road, stop 2200","53.3502827503688","-6.35295415067495"
"8220DB002243","Glenaulin, stop 2243","53.3519743826832","-6.35569799515705"
"8220DB002317","St Mary's Road, stop 2317","53.3234185687146","-6.31887655923765"
"8220DB002318","Somerville Avenue, stop 2318","53.3219800054757","-6.31884304552818"
"8220DB002319","Crumlin Garda Stn, stop 2319","53.3195647461072","-6.31520038858857"
"8220DB002327","St Agnes Road, stop 2327","53.316854433306","-6.31676307428071"
"8220DB002328","St Agnes Road, stop 2328","53.3197047893284","-6.3155701341086"
"8220DB002329","Crumlin Village, stop 2329","53.3209014798796","-6.31693402537412"
"8220DB002330","Sommerville Avenue, stop 2330","53.3221480438977","-6.31928677990811"
"8220DB002331","St Mary's Road, stop 2331","53.3245717749258","-6.31779537774902"
"8220DB002413","Whitehall Road, stop 2413","53.3128657948877","-6.30548384645272"
"8220DB002414","Westbrook, stop 2414","53.3140744704623","-6.31085404934154"
"8220DB002415","Royston Village, stop 2415","53.3150567500053","-6.31357689259078"
"8220DB002434","Kimmage Road West, stop 2434","53.3160265967796","-6.31606020141498"
"8220DB002435","Westbrook, stop 2435","53.3143144024753","-6.31129483322407"
"8220DB002436","Lorcan O'Toole Park, stop 2436","53.313705907019","-6.3089475270515"
"8220DB002437","Brookfield, stop 2437","53.3126888171586","-6.30251926023373"
"8220DB002448","Cashel Road, stop 2448","53.3193092472173","-6.30414780696657"
"8220DB002449","Armagh Road, stop 2449","53.3209851812057","-6.30507207177193"
"8220DB002450","Scoil Una Naofa, stop 2450","53.3202310999915","-6.30766878924248"
"8220DB002451","St Agnes Park, stop 2451","53.3191657562389","-6.31431548777232"
"8220DB002464","St Agnes Park, stop 2464","53.3194811626151","-6.31310222168217"
"8220DB002465","Armagh Road, stop 2465","53.3199884645823","-6.30893928264188"
"8220DB002466","Scoil Colm, stop 2466","53.3206542345167","-6.30645117635707"
"8220DB002467","Cashel Road, stop 2467","53.3192341833908","-6.30392562805672"
"8220DB002471","Larkfield Park, stop 2471","53.3186815798075","-6.2891475010922"
"8220DB002472","Harolds Cross NS, stop 2472","53.3176779065515","-6.28560029534869"
"8220DB002473","Clareville Road, stop 2473","53.3178887291057","-6.28338538434528"
"8220DB002474","Westfield Road, stop 2474","53.3187560070804","-6.28181952888636"
"8220DB002475","Kenilworth Park, stop 2475","53.3188658869412","-6.28008893179154"
"8220DB002476","Kenilworth Square N, stop 2476","53.3190438089002","-6.27746997537537"
"8220DB002477","Kenilworth Road, stop 2477","53.3198779433131","-6.27423910941842"
"8220DB002478","Grosvenor Road, stop 2478","53.320577591066","-6.26979766918624"
"8220DB002479","Grosvenor Road, stop 2479","53.3202340044305","-6.27027690461022"
"8220DB002480","Kenilworth Road, stop 2480","53.3197445023017","-6.27433455790177"
"8220DB002481","Harolds Cross Road, stop 2481","53.3187380715437","-6.27808269931123"
"8220DB002482","Clareville Road, stop 2482","53.3189206310838","-6.28139262665714"
"8220DB002483","Larkfield Grove, stop 2483","53.3175979860511","-6.28441772237934"
"8220DB002484","Larkfield Park, stop 2484","53.3185468354237","-6.28915289128921"
"8220DB002485","Sundrive Road, stop 2485","53.3197915765421","-6.29133967375744"
"8220DB002486","Blarney Park, stop 2486","53.3210753974058","-6.29311972472242"
"8220DB002487","Stannaway Road, stop 2487","53.3218163769719","-6.29528179712857"
"8220DB002488","Kilfenora Road, stop 2488","53.3203554286529","-6.2987174578256"
"8220DB002489","Clonfert Road, stop 2489","53.3194152019784","-6.30085632158325"
"8220DB002494","Stannaway Road, stop 2494","53.3196966737569","-6.30042484360658"
"8220DB002495","Ferns Road, stop 2495","53.3212199106302","-6.2969417818012"
"8220DB002496","Eamonn Ceannt Park, stop 2496","53.3219677485368","-6.29392474193039"
"8220DB002497","Sundrive Park, stop 2497","53.3203299516162","-6.29190358357233"
"8220DB002499","Custom House Quay, stop 2499","53.3481278261786","-6.24712750979294"
"8220DB002652","Kylemore Avenue, stop 2652","53.3388459496921","-6.34810890913172"
"8220DB002653","Ballyfermot Crescent, stop 2653","53.3402347651841","-6.34844568463053"
"8220DB002654","Ballyfermot Road, stop 2654","53.3412987302067","-6.34868990718235"
"8220DB002655","Ballyfermot Parade, stop 2655","53.3421381592182","-6.35284757646732"
"8220DB002656","Ballyfermot, stop 2656","53.3426234944772","-6.35871610719473"
"8220DB002668","Ballyfermot Comm Cen, stop 2668","53.3429828349145","-6.36328297232268"
"8220DB002672","Cleggan Park, stop 2672","53.3433589409064","-6.3677741773581"
"8220DB002688","Cleggan Park, stop 2688","53.3434635062593","-6.36819070772056"
"8220DB002689","Blackditch Drive, stop 2689","53.3431059999655","-6.36374383192321"
"8220DB002696","Ballyfermot, stop 2696","53.3426876161017","-6.35880375521615"
"8220DB002697","Ballyfermot Parade, stop 2697","53.3422774660978","-6.35317261042737"
"8220DB002700","Kylemore Road, stop 2700","53.3412966526","-6.34853980731355"
"8220DB002701","Ballyfermot Crescent, stop 2701","53.3401698049081","-6.34829801891186"
"8220DB002702","Kylemore Avenue, stop 2702","53.338103299905","-6.34770212371671"
"8220DB002726","Long Mile Road, stop 2726","53.3238143897131","-6.33042017959449"
"8220DB002727","Drimnagh Castle, stop 2727","53.3237589731435","-6.33288429328553"
"8220DB002778","Drimnagh Castle, stop 2778","53.3240244462339","-6.3319432002736"
"8220DB002780","Walkinstown Avenue, stop 2780","53.3256848414275","-6.34208696277501"
"8220DB002781","Kylemore Road, stop 2781","53.3279631771574","-6.34369512268689"
"8220DB002782","Bluebell Avenue, stop 2782","53.3306772641416","-6.34561689907674"
"8220DB002783","Kylemore Way, stop 2783","53.335359308599","-6.34686219628392"
"8220DB002784","Kylemore Way, stop 2784","53.335238991337","-6.34661157959846"
"8220DB002785","Bluebell Avenue, stop 2785","53.3300839894138","-6.34496422419887"
"8220DB002786","Kylemore Luas, stop 2786","53.3278418116027","-6.34336953184562"
"8220DB002787","Walkinstown Avenue, stop 2787","53.3251007396847","-6.34144906781107"
"8220DB002788","Castlewood Avenue, stop 2788","53.3228386545879","-6.26334121729293"
"8220DB002789","Charleston Avenue, stop 2789","53.3237164482406","-6.25943246214361"
"8220DB002790","Oakley Road, stop 2790","53.324637512104","-6.25664770588739"
"8220DB002791","Ranelagh Luas, stop 2791","53.3250230919615","-6.25535592189241"
"8220DB002793","Belgrave Square N, stop 2793","53.323262242243","-6.26095213828518"
"8220DB002794","Castlewood Avenue, stop 2794","53.3226105305666","-6.26434125016906"
"8220DB002796","Pembroke Road, stop 2796","53.3326990430148","-6.2406730815285"
"8220DB002797","Northumberland Road, stop 2797","53.3322603942627","-6.23653195679313"
"8220DB002798","Pembroke Road, stop 2798","53.3319991166606","-6.23588207570366"
"8220DB002799","Eastmoreland Place, stop 2799","53.3326920053395","-6.2420247419468"
"8220DB002800","Sandymount Avenue, stop 2800","53.3271442905313","-6.22248034499805"
"8220DB002801","Wilfield Park, stop 2801","53.3292443853979","-6.21865452325086"
"8220DB002806","Sandymount Avenue, stop 2806","53.3303771444484","-6.21626506331822"
"8220DB002807","Wilfield Park, stop 2807","53.3287554951143","-6.21902021406239"
"8220DB002808","Sandymount Station, stop 2808","53.3268114454089","-6.22306468509905"
"8220DB002810","Merrion Square West, stop 2810","53.3407949111292","-6.25089748919423"
"8220DB003353","Downpatrick Road, stop 3353","53.3277417972717","-6.29795813528626"
"8220DB003354","Clogher Road, stop 3354","53.3263994666762","-6.29711079821817"
"8220DB003355","Slane Road, stop 3355","53.3254823570809","-6.29771780173804"
"8220DB003356","Bangor Road, stop 3356","53.3248516316121","-6.30076039350032"
"8220DB003357","Clonmacnoise Grove, stop 3357","53.3219738452689","-6.30191053021915"
"8220DB003358","Lismore Road, stop 3358","53.3211321838368","-6.30340002134167"
"8220DB003360","Clonmacnoise Road, stop 3360","53.3217787260346","-6.30398983182231"
"8220DB003361","Clogher Road, stop 3361","53.3262397006461","-6.2972522769187"
"8220DB003362","Downpatrick Road, stop 3362","53.3274370179982","-6.29801530830924"
"8220DB003952","Rutland Avenue, stop 3952","53.3316839465215","-6.29455799199736"
"8220DB004363","Berryfield Road, stop 4363","53.3817122370602","-6.30344250600003"
"8220DB004364","Cappagh Hospital, stop 4364","53.3929113883209","-6.32252918543631"
"8220DB004365","Poppintree Park, stop 4365","53.4021446934677","-6.28351431414377"
"8220DB004366","Clune Road, stop 4366","53.3912153802017","-6.29480995042032"
"8220DB004367","Jamestown Road, stop 4367","53.3987327890056","-6.28939631666672"
"8220DB004368","Poppintree Park, stop 4368","53.3988240611957","-6.28886631109225"
"8220DB004369","Oakwood Road, stop 4369","53.3972652002432","-6.29235749139327"
"8220DB004375","Jamestown Road, stop 4375","53.3916731625619","-6.29665609729644"
"8220DB004376","Clancy Avenue, stop 4376","53.3924080528234","-6.2927323917351"
"8220DB004377","Sycamore Road, Stop 4377","53.3944892873151","-6.28994244366244"
"8220DB004389","Clontarf Golf Club, stop 4389","53.3734638911622","-6.2106924455667"
"8220DB004390","Railway Bridge, stop 4390","53.3718904372573","-6.20766241216389"
"8220DB004406","Carriglea Ind Est, stop 4406","53.3280888160763","-6.33851063578029"
"8220DB004413","Heuston Station, stop 4413","53.3461564853683","-6.29279378208834"
"8220DB004414","Convent Lawns, stop 4414","53.3443370217364","-6.35001432213042"
"8220DB004473","Artane Castle SC, stop 4473","53.383914252027","-6.21470406436338"
"8220DB004474","Artane Castle SC, stop 4474","53.3841372470747","-6.21519083527681"
"8220DB004479","McKee Road, stop 4479","53.3913045299521","-6.29412977812104"
"8220DB004527","Rathmines, stop 4527","53.321613498098","-6.26685857978081"
"8220DB004539","Glenties Park, stop 4539","53.3816733488144","-6.31083995275688"
"8220DB004583","Finglas West Church, stop 4583","53.3885290912024","-6.3125981876353"
"8220DB004592","Finglas Village, stop 4592","53.3896860703086","-6.29849455937189"
"8220DB004597","Beaumont Hospital, stop 4597","53.3902504630257","-6.22431722876629"
"8220DB004781","IDA Poppintree, stop 4781","53.4017480300049","-6.2840566634663"
"8220DB004784","CRC, stop 4784","53.3700841075255","-6.2011107024781"
"8220DB004785","CRC, stop 4785","53.3702460899973","-6.20172004610403"
"8220DB004788","Oakwood Road, stop 4788","53.3969347694167","-6.29250606231354"
"8220DB004790","Pinebrook Drive, stop 4790","53.3813898765403","-6.21178816894973"
"8220DB004791","Collins Avenue East, stop 4791","53.3716117545703","-6.20765908533889"
"8220DB004792","Clanawley Road, stop 4792","53.3727989041671","-6.20950294056014"
"8220DB004793","Avila Park, stop 4793","53.3922672634028","-6.32082537531735"
"8220DB004794","Clontarf Station, stop 4794","53.3630049005942","-6.22656242306649"
"8220DB004890","Sycamore Park, stop 4890","53.3951675776447","-6.29086258474813"
"8220DB005006","Le Fanu Road, stop 5006","53.3462028544996","-6.35169957710725"
"8220DB005007","Convent Lawns, stop 5007","53.3441883077886","-6.34965960806545"
"8220DB005009","Le Fanu Road, stop 5009","53.3462145335604","-6.3518943831314"
"8220DB005026","Armagh Road, stop 5026","53.3204303650202","-6.30524416881726"
"8220DB005060","Dundaniel Road, stop 5060","53.3971670149031","-6.22402924061357"
"8220DB005061","Kilbarron Drive, stop 5061","53.3956965209063","-6.2248724258515"
"8220DB005140","Mayor Street Lower, stop 5140","53.3511243927376","-6.24553242137239"
"8220DB005141","Seafield Road West, stop 5141","53.3647439834775","-6.20521257219209"
"8220DB005174","Dundaniel Road, stop 5174","53.3957088554233","-6.22509747426004"
"8220DB006068","Ratoath Drive, stop 6068","53.3902823798293","-6.31709957382233"
"8220DB006074","Earlsfort Terrace, stop 6074","53.3358949327578","-6.25755504246774"
"8220DB006078","Cromcastle Road, stop 6078","53.3972417816507","-6.22422162082612"
"8220DB006239","Dolmen Court, stop 6239","53.3980420322605","-6.27139328390733"
"8220DB006241","Crannogue Road, stop 6241","53.40181592283","-6.27940673236032"
"8220DB006273","Sycamore Road, stop 6273","53.395275371856","-6.29085826487389"
"8220DB007044","Aulden Grange, stop 7044","53.3974093697463","-6.23248556787174"
"8220DB007092","Dolmen Court, stop 7092","53.3981870002091","-6.27209420381953"
"8220DB007112","Astro Park, stop 7112","53.3975490018296","-6.22917140050016"
"8220DB007129","Victoria Road, stop 7129","53.3620982002878","-6.20858435317714"
"8220DB007130","Cromcastle Green, stop 7130","53.3930727351748","-6.22069621903409"
"8220DB007458","Collins Drive, stop 7458","53.3900665526349","-6.29052570608456"
"8220DB007471","Tolka Valley Green, stop 7471","53.3792569087814","-6.29324355545046"
"8220DB007571","DCU Helix, stop 7571","53.3867756476317","-6.25872495848864"
"8220DB007599","Gilford Road, stop 7599","53.3303169486295","-6.2170483266414"
"8220DB007607","Vernon Avenue, stop 7607","53.3694140827716","-6.19542820325134"
"8220DB007668","Charleston Road, stop 7668","53.3241342651263","-6.25788421144422"
"8230B1043001","Rathcoole Slip Road, stop 104301","53.2828599806138","-6.4721829468901"
"8230B105121","Saggart Cross, stop 105121","53.2913577733481","-6.43919414042117"
"8230B1056701","Saggart Cross, stop 105671","53.2920235379594","-6.43649977365289"
"8230B1339501","Holy Family NS, stop 133951","53.2809695840593","-6.47898384831025"
"8230DB000946","Woodbrook Park, stop 946","53.2932464974253","-6.31004087391833"
"8230DB001131","Old Bridge Road, stop 1131","53.2942224115062","-6.30787212207606"
"8230DB001132","Anne Devlin Road, stop 1132","53.2943500745707","-6.30483674698734"
"8230DB001133","Butterfield Grove, stop 1133","53.2947048131263","-6.30134229094506"
"8230DB001134","Rathfarnham SC, stop 1134","53.2955073210834","-6.29837004294659"
"8230DB001138","Butterfield Grove, stop 1138","53.2948344415945","-6.3003470274883"
"8230DB001139","Old Bridge Road, stop 1139","53.2942244156273","-6.30674692432377"
"8230DB001140","Woodbrook Park, stop 1140","53.293284612524","-6.30955932936317"
"8230DB001149","St Colmcilles School, stop 1149","53.2793580012355","-6.31562770910342"
"8230DB001301","Dodder Park Road, stop 1301","53.3038958093831","-6.28349663113993"
"8230DB001302","Crannagh Road, stop 1302","53.3016627220282","-6.28384127490986"
"8230DB001303","Rathfarnham Castle, stop 1303","53.299342312629","-6.28373927808224"
"8230DB001304","Butterfield Avenue, stop 1304","53.2981765474708","-6.28455117924164"
"8230DB001305","Willbrook Road, stop 1305","53.296169599544","-6.28374647794414"
"8230DB001329","St Mary's School, stop 1329","53.2949669228773","-6.28199447212762"
"8230DB001330","Willbrook Road, stop 1330","53.2961910179501","-6.28398565628823"
"8230DB001331","Rathfarnham Road, stop 1331","53.2985191944297","-6.28462746436192"
"8230DB001332","Crannagh Road, stop 1332","53.3007580323743","-6.28405760131194"
"8230DB001333","Brookvale Road, stop 1333","53.3031038796353","-6.28405356383738"
"8230DB001334","Dodder Bridge, stop 1334","53.3048480024923","-6.28345843394713"
"8230DB001960","Red Cow Hotel, stop 1960","53.3200631687512","-6.36195371168539"
"8230DB001977","Red Cow Hotel, stop 1977","53.3205468241669","-6.36183011161259"
"8230DB002110","Newlands Cross, stop 2110","53.314647357799","-6.39196818042722"
"8230DB002111","Clondalkin Church, stop 2111","53.3191587732609","-6.39259410078768"
"8230DB002112","Clondalkin Main St, stop 2112","53.3206703248447","-6.39337788605709"
"8230DB002114","Ninth Lock Road, stop 2114","53.3242145514861","-6.39560159465003"
"8230DB002115","Oakfield, stop 2115","53.3256298971286","-6.3952482398373"
"8230DB002116","Michael Collins Pk, stop 2116","53.3282504281949","-6.39629089505763"
"8230DB002117","Station Road, stop 2117","53.3298457161862","-6.39795765033298"
"8230DB002118","Neilstown Road, stop 2118","53.3356239897063","-6.40056407537987"
"8230DB002119","St Peter School, stop 2119","53.3370479288624","-6.40018042839265"
"8230DB002120","Collinstown College, stop 2120","53.3411632704427","-6.39942565437454"
"8230DB002121","Rowlagh, stop 2121","53.3438755786517","-6.39860315587688"
"8230DB002123","St Mark's Avenue, stop 2123","53.3471760338805","-6.39807391277742"
"8230DB002124","Neilstown Road, stop 2124","53.3469584164086","-6.39793187307249"
"8230DB002125","Harelawn Green, stop 2125","53.3455867762452","-6.39819357526102"
"8230DB002126","Rowlagh, stop 2126","53.3439354401534","-6.39837562988942"
"8230DB002127","Collinstown College, stop 2127","53.3415714730725","-6.39903491521607"
"8230DB002128","Neilstown Avenue, stop 2128","53.3396666624115","-6.39975201801213"
"8230DB002129","Moorefield Drive, stop 2129","53.3357283700749","-6.40030489835481"
"8230DB002130","Station Road, stop 2130","53.3297236912584","-6.39757186302498"
"8230DB002158","Oakfield, stop 2158","53.3254849510884","-6.39516360556821"
"8230DB002159","Clondalkin Garda Stn, stop 2159","53.3232207170879","-6.39388252941307"
"8230DB002173","Laurel Park, stop 2173","53.3185518287611","-6.39224166338886"
"8230DB002174","Knockmeenagh Road, stop 2174","53.3163990070193","-6.39122691549201"
"8230DB002176","Newlands Cross, stop 2176","53.3137055565458","-6.38811645092477"
"8230DB002201","Palmerstown Drive, stop 2201","53.3532737532198","-6.36457116457726"
"8230DB002202","Lucan Road, stop 2202","53.3543817718008","-6.37330192311849"
"8230DB002203","Palmerstown Avenue, stop 2203","53.3532072699109","-6.37615579306219"
"8230DB002204","Oakcourt Avenue, stop 2204","53.3500190174272","-6.37765891901863"
"8230DB002205","Cherry Orchard Hosp, stop 2205","53.3445906434325","-6.3770239633874"
"8230DB002206","Cherry Orchard Hosp, stop 2206","53.344186793022","-6.37574767124228"
"8230DB002207","Kennelsfort Road, stop 2207","53.3467566214736","-6.37966028357372"
"8230DB002208","Kennelsfort Green, stop 2208","53.3499128506173","-6.37778311866053"
"8230DB002210","Woodfarm, stop 2210","53.3523918339062","-6.37831989512393"
"8230DB002211","Palmerstown Avenue, stop 2211","53.3539587776191","-6.37457991504242"
"8230DB002212","Palmerstown Village, stop 2212","53.3559674221594","-6.37094299405759"
"8230DB002213","Liffey Valley SC, stop 2213","53.3557776541604","-6.39207262283404"
"8230DB002223","Main Street Lucan, stop 2223","53.3585272442133","-6.44906001031817"
"8230DB002224","Lucan Village, stop 2224","53.3572779284342","-6.44975138491198"
"8230DB002225","St Patricks Church, stop 2225","53.3495522066363","-6.45004676330198"
"8230DB002226","Collins Bridge, stop 2226","53.3702722410321","-6.45652303443807"
"8230DB002227","St Patricks Church, stop 2227","53.34956392041","-6.45025662824942"
"8230DB002228","Collins Bridge, stop 2228","53.3713065694238","-6.45588450235382"
"8230DB002229","Main St Lucan, stop 2229","53.358605754547","-6.44887687249323"
"8230DB002239","Liffey Valley SC, stop 2239","53.3561684706184","-6.39172740046691"
"8230DB002241","Kennelsfort Road, stop 2241","53.3549292563171","-6.37126802262205"
"8230DB002242","The Oval, stop 2242","53.3539273217415","-6.36700981772815"
"8230DB002345","Belgard Retail Park, stop 2345","53.2936088478975","-6.36898165623541"
"8230DB002346","Belgard Square North, stop 2346","53.2900797370852","-6.36790110381362"
"8230DB002349","Alderwood, stop 2349","53.2850288716238","-6.37847238352646"
"8230DB002351","Blessington Road, stop 2351","53.2832055705941","-6.3845254486257"
"8230DB002359","Maplewood Avenue, stop 2359","53.2835900308723","-6.38437596627328"
"8230DB002360","Alderwood, stop 2360","53.2846948207372","-6.37968487975509"
"8230DB002363","Belgard Road, stop 2363","53.2898059718869","-6.36825653762893"
"8230DB002364","Belgard Retail Park, stop 2364","53.2935508855712","-6.36934389368259"
"8230DB002515","Cherryfield Way, stop 2515","53.2913443620366","-6.31281606279925"
"8230DB002516","Cremore, stop 2516","53.2902232678862","-6.31553027278457"
"8230DB002517","Green Acre Court, stop 2517","53.2892149823086","-6.31859990290754"
"8230DB002518","Knocklyon Avenue, stop 2518","53.2885324496698","-6.32438653552509"
"8230DB002520","Ballycullen Road, stop 2520","53.2860777851885","-6.33265687334978"
"8230DB002521","Woodlawn Park, stop 2521","53.2847193344915","-6.33578439685521"
"8230DB002522","Firhouse Centre, stop 2522","53.2814222293909","-6.34234624628976"
"8230DB002523","Firhouse College, stop 2523","53.27710694286","-6.34875137969135"
"8230DB002524","Ballycullen Drive, stop 2524","53.2783737436074","-6.34676806631814"
"8230DB002532","Old Bawn Centre, stop 2532","53.2756035852851","-6.35443244185322"
"8230DB002533","Parkwood Lawn, stop 2533","53.2775083920913","-6.35764330397156"
"8230DB002534","Old Bawn Terrace, stop 2534","53.2789286838483","-6.35830865659525"
"8230DB002535","Seskin View Road, stop 2535","53.2810133262294","-6.35891860284655"
"8230DB002536","Old Bawn Court, stop 2536","53.2829548505574","-6.3595790811863"
"8230DB002538","The Crescent, stop 2538","53.2815345660125","-6.35891362658069"
"8230DB002539","Kiltipper Road, stop 2539","53.2765355041094","-6.35618107892911"
"8230DB002540","Old Bawn Centre, stop 2540","53.2755315986175","-6.35377543035148"
"8230DB002542","Firhouse College, stop 2542","53.2767930271506","-6.35009807002543"
"8230DB002544","Woodlawn, stop 2544","53.2848726769912","-6.3358234320556"
"8230DB002545","Monalea Wood, stop 2545","53.2862572397546","-6.3326348868067"
"8230DB002547","Knocklyon Avenue, stop 2547","53.28910476587","-6.32353915092047"
"8230DB002548","Green Acre Court, stop 2548","53.289502757082","-6.31797360538883"
"8230DB002557","Tallaght Village, stop 2557","53.2885064213373","-6.36328124896311"
"8230DB002604","Village Green, stop 2604","53.2868149331801","-6.361846019424"
"8230DB002605","St Maelruan's Park, stop 2605","53.2840559727612","-6.35991184833953"
"8230DB002616","St Maelruan's Park, stop 2616","53.2846412135112","-6.36063933900617"
"8230DB002617","Village Green, stop 2617","53.2867102221549","-6.3620750078624"
"8230DB002618","Belgard, stop 2618","53.2987546058901","-6.37129107581065"
"8230DB002619","Belgard Road, stop 2619","53.3026751409414","-6.37669349477982"
"8230DB002620","Belgard, stop 2620","53.298721511052","-6.3708422446212"
"8230DB002621","Kilclare, stop 2621","53.2821328026315","-6.38960496497795"
"8230DB002631","Raheen Drive, stop 2631","53.2821961657635","-6.38897270039791"
"8230DB002669","Swiftbrook Avenue, stop 2669","53.2850061073024","-6.40611486768056"
"8230DB002673","Cherry Orchard IE, stop 2673","53.3437794112364","-6.37289455966837"
"8230DB002675","Harelawn, stop 2675","53.3477889506714","-6.39552753886543"
"8230DB002685","Coldcut Road, stop 2685","53.3479550926917","-6.39585174508451"
"8230DB002686","Sports Club, stop 2686","53.3476521871359","-6.3887135237221"
"8230DB002687","Cherry Orchard IE, stop 2687","53.3439611243602","-6.37303782918347"
"8230DB002762","Newlands Golf Club, stop 2762","53.3111810794547","-6.38953221571496"
"8230DB002763","Newlands Golf Club, stop 2763","53.3088093657386","-6.38629004350367"
"8230DB002927","Edmondstown Road, stop 2927","53.2771350458186","-6.2970756020232"
"8230DB002929","Edmondstown Golf, stop 2929","53.2718329035227","-6.29902564370443"
"8230DB002930","Kilmashogue Cemetery, stop 2930","53.2679047342764","-6.2983720015493"
"8230DB002933","Rockbrook, stop 2933","53.2618708812237","-6.29754727596627"
"8230DB002934","Rockbrook, stop 2934","53.2620973839498","-6.29767319140546"
"8230DB002935","The Merry Ploughboy, stop 2935","53.2641307659486","-6.29718765857971"
"8230DB002936","Kilmashogue Cemetery, stop 2936","53.2660993481796","-6.29782903458388"
"8230DB002937","Edmondstown NS, stop 2937","53.2686479761895","-6.29880725582635"
"8230DB002938","Edmondstown Golf, stop 2938","53.2716453279283","-6.29910805963686"
"8230DB002940","Moyville, stop 2940","53.2803586859696","-6.29748730884419"
"8230DB002948","Ballyboden Crescent, stop 2948","53.2819527231205","-6.29581922742645"
"8230DB002949","Moyville Lawns, stop 2949","53.2816733044639","-6.29325082629434"
"8230DB002950","Pearse Brothers Park, stop 2950","53.2817934073408","-6.28846191367869"
"8230DB002954","Whitechurch Green, stop 2954","53.2780415019008","-6.28631746241019"
"8230DB002956","Glenmore Park, stop 2956","53.2781201946534","-6.28616435406068"
"8230DB002965","Whitechurch Road, stop 2965","53.2803041452463","-6.28427735013819"
"8230DB002967","Eden Avenue, stop 2967","53.2813395031703","-6.27691727465225"
"8230DB002968","Three Rock Rovers, stop 2968","53.2803293260054","-6.27356864456597"
"8230DB002980","Three Rock Rovers, stop 2980","53.2800165259046","-6.27307136678605"
"8230DB002981","Eden Avenue, stop 2981","53.2812724044924","-6.27724991071999"
"8230DB002983","Pearse Brothers Park, stop 2983","53.2816185848286","-6.28755407095941"
"8230DB002984","Moyville Lawns, stop 2984","53.281543707817","-6.2936159231513"
"8230DB003368","Finnstown Abbey, stop 3368","53.3445579030423","-6.44958211522961"
"8230DB003370","Finnstown Abbey, stop 3370","53.3444704239227","-6.44769290531112"
"8230DB003425","Newlands Cross, stop 3425","53.3139017328619","-6.39199620954264"
"8230DB003427","Newlands Cross, stop 3427","53.3125160593396","-6.3918832097266"
"8230DB003886","Primrose Lane, stop 3886","53.3556904165022","-6.454165633982"
"8230DB003887","Ardeevin Avenue, stop 3887","53.3552287991644","-6.45877928323059"
"8230DB003888","Old Cornmill Road, stop 3888","53.3551537748953","-6.46271792558204"
"8230DB003890","Dodsboro Road, stop 3890","53.3506892844045","-6.46430558673122"
"8230DB003891","Woodview Heights, stop 3891","53.3519418727915","-6.46316398659358"
"8230DB003949","Leixlip Road, stop 3949","53.355516918551","-6.46021107416004"
"8230DB003950","Ball Alley House, stop 3950","53.3556024866233","-6.45501009445385"
"8230DB004327","Liffey Valley Golf, stop 4327","53.3510620657886","-6.43832047324453"
"8230DB004341","The Square, stop 4341","53.2856558424584","-6.37237427733729"
"8230DB004342","The Square Tallaght, stop 4342","53.286105644023","-6.37306211391221"
"8230DB004347","The Square Tallaght, stop 4347","53.2862220524214","-6.37500751308391"
"8230DB004348","Tallaght Luas, stop 4348","53.2866720396025","-6.37505043118615"
"8230DB004357","Hollyville Lawn, stop 4357","53.3579414399767","-6.38060312698792"
"8230DB004359","Hollyville Lawn, stop 4359","53.3579749523158","-6.37909947484477"
"8230DB004360","Robin Villas, stop 4360","53.3571539460727","-6.37358695042739"
"8230DB004361","Palmerstown Village, stop 4361","53.3556115756121","-6.37121195750167"
"8230DB004401","Kennelsfort Road, stop 4401","53.3547555333603","-6.37171030536814"
"8230DB004409","Clondalkin Village, stop 4409","53.3223471943327","-6.39308971803543"
"8230DB004435","Tallaght Village, stop 4435","53.2888429202751","-6.36356837702223"
"8230DB004436","IT Tallaght, stop 4436","53.2891682645027","-6.36697586970939"
"8230DB004438","Citywest Campus, stop 4438","53.293314600199","-6.42260669701533"
"8230DB004611","St Finnian's, stop 4611","53.3489238790205","-6.43976549945542"
"8230DB004612","Arthur Griffith Park, stop 4612","53.3474491563768","-6.44246287111901"
"8230DB004613","Esker Cottages, stop 4613","53.34508497603","-6.44450154015426"
"8230DB004616","Lucan Comm College, stop 4616","53.3476964776814","-6.45110540898334"
"8230DB004620","Lucan Comm College, stop 4620","53.347236363205","-6.45097189033158"
"8230DB004626","Arthur Griffith Park, stop 4626","53.3473099255843","-6.44281340516959"
"8230DB004627","St Finnian's, stop 4627","53.3491988362237","-6.43948508708762"
"8230DB004640","Tallaght Hospital, stop 4640","53.289395624798","-6.37374708548246"
"8230DB004644","Russell Lane, stop 4644","53.2836757267185","-6.40274491381162"
"8230DB004645","Swiftbrook Avenue, stop 4645","53.2848609679471","-6.40601528328403"
"8230DB004646","Tallaght Hospital, stop 4646","53.289438713432","-6.37427044038538"
"8230DB004647","South Dublin CC, stop 4647","53.2900574732911","-6.37153194884297"
"8230DB004713","Bianconi Avenue, stop 4713","53.2912892220389","-6.42713641091449"
"8230DB004714","Castle Drive, stop 4714","53.2887472357334","-6.42385492509483"
"8230DB004715","Liffey Valley SC, stop 4715","53.3526793490955","-6.39559922812306"
"8230DB004795","Liffey Valley SC, stop 4795","53.3524180232282","-6.3955489560181"
"8230DB004798","Coldcut Road, stop 4798","53.3456142784664","-6.38092018172726"
"8230DB004799","Ballyfermot Road, stop 4799","53.3451937376111","-6.37907372188314"
"8230DB004869","St Colmcille's Way, stop 4869","53.2791145416749","-6.31875650653983"
"8230DB004870","Woodstown, stop 4870","53.2766673916987","-6.33009910271138"
"8230DB004871","Wood Dale View, stop 4871","53.2761106877689","-6.33656873168671"
"8230DB004872","Parklands, stop 4872","53.2755620147932","-6.34234810723407"
"8230DB004873","Old Court Farm, stop 4873","53.275032791577","-6.34695698774489"
"8230DB004874","Old Court Road, stop 4874","53.274697154617","-6.35062863384368"
"8230DB004882","Old Court Road, stop 4882","53.2747920313838","-6.3503400819074"
"8230DB004883","Old Court Farm, stop 4883","53.2751389286659","-6.34683293352432"
"8230DB004884","Parklands, stop 4884","53.2756284397564","-6.34260045154125"
"8230DB004885","Wood Dale View, stop 4885","53.2762189048768","-6.33659451965012"
"8230DB004886","Woodstown, stop 4886","53.2768593539223","-6.32968674190355"
"8230DB004887","St Colmcille's Way, stop 4887","53.279472915535","-6.31803760867392"
"8230DB004888","Palmerstown Crescent, stop 4888","53.3474297702365","-6.37892880915582"
"8230DB004930","Citywest Avenue, stop 4930","53.287569714924","-6.42248836386907"
"8230DB004931","Orchard Avenue, stop 4931","53.28901878191","-6.42535987909249"
"8230DB004960","Citywest Road, stop 4960","53.285050592141","-6.42162128652657"
"8230DB005008","Belgard Square North, stop 5008","53.2904501890302","-6.3693569938866"
"8230DB005011","Belgard Road, stop 5011","53.3024709725117","-6.37688129130786"
"8230DB005022","Citywest Campus, stop 5022","53.293380460162","-6.42282928585494"
"8230DB005129","Butterfield Avenue, stop 5129","53.2977087167307","-6.2857701580969"
"8230DB005130","Charleville Square, stop 5130","53.2966935915958","-6.29332705944723"
"8230DB005131","Charleville Square, stop 5131","53.2969745380336","-6.29160556321328"
"8230DB005132","Owendore Avenue, stop 5132","53.2979462204631","-6.28666082155275"
"8230DB005138","Esker Lodge, stop 5138","53.3516756949088","-6.43439245578702"
"8230DB006001","Kingswood Avenue, stop 6001","53.294476510422","-6.41939858171846"
"8230DB006002","Kingswood Avenue, stop 6002","53.2952697239276","-6.41821416123245"
"8230DB006075","Whitebrook Park, stop 6075","53.2832294373398","-6.39094350153132"
"8230DB006128","Ballycullen Avenue, stop 6128","53.2831019273195","-6.34097643683367"
"8230DB006133","Laraghcon, stop 6133","53.3607693710265","-6.45214878291871"
"8230DB006134","Laraghcon, stop 6134","53.3608260222213","-6.45166594019239"
"8230DB006289","Adamstown Station, stop 6289","53.3362624533633","-6.46839778145598"
"8230DB006290","Adamstown Station, stop 6290","53.3362617217686","-6.46694125595062"
"8230DB007067","Whitechurch Way, stop 7067","53.2778338338973","-6.28875510387515"
"8230DB007165","Robin Villas, stop 7165","53.357217462809","-6.37429063895218"
"8230DB007168","Newcastle Road, stop 7168","53.3452148285973","-6.45172104034757"
"8230DB007181","Belgard Square South, stop 7181","53.2860546070537","-6.37327403309816"
"8230DB007186","Lucan Spa Hotel, stop 7186","53.3567952920024","-6.46525786113091"
"8230DB007193","Tandy's Lane, stop 7193","53.3539420024164","-6.45866046849816"
"8230DB007440","An Post Edmonstown, stop 7440","53.2761302274538","-6.2972055213744"
"8230DB007441","The Merry Ploughboy, stop 7441","53.2643730950578","-6.29716303819428"
"8230DB007442","St Enda's GAA Club, stop 7442","53.2824897977075","-6.30070203345293"
"8230DB007443","Templeroan Estate, stop 7443","53.2814641732336","-6.30695153563061"
"8230DB007444","St Enda's GAA Club, stop 7444","53.2823865091018","-6.29913139992248"
"8230DB007446","Templeroan Estate, stop 7446","53.281178203883","-6.30706781981239"
"8230DB007447","Grange Golf Club, stop 7447","53.2815889391895","-6.2811214561344"
"8230DB007448","Grange Golf Club, stop 7448","53.2817369881471","-6.28141545916271"
"8230DB007449","Ballyboden Crescent, stop 7449","53.2818173347155","-6.29577962324489"
"8230DB007459","Bianconi Avenue, stop 7459","53.2908418206833","-6.42728784873351"
"8230DB007510","Cloverhill Road, stop 7510","53.3471906904254","-6.38449528656213"
"8230DB007563","Weston Hockey Club, stop 7563","53.3455700830512","-6.45139276217702"
"8230DB007749","Dodsborough Road, stop 7749","53.3505986745685","-6.46424875975903"
"8230DB007751","Esker Glebe, Stop 7751","53.350698258052","-6.43867925875217"
"8230DB007752","Esker Park, stop 7752","53.3524015382201","-6.43080570030288"
"8230DB007754","Clayton Hotel, stop 7754","53.353796997623","-6.40119061274349"
"8230DB007768","Larkfield, stop 7768","53.3544513469247","-6.41791622056397"
"8230DB007769","Larkfield, stop 7769","53.3544393514308","-6.41836733955657"
"8230DB007772","Liffey Avenue, stop 7772","53.3537599008432","-6.4132248422844"
"8230DB007773","Liffey Avenue, stop 7773","53.3536866354083","-6.41312240830809"
"8230DB007774","Lucan Garda Station, stop 7774","53.3563059149309","-6.45103358096085"
"8230DB007775","Lucan Main Street, stop 7775","53.3559854577105","-6.44988843406889"
"8230DB007792","Saint Lomans Road, stop 7792","53.3540035212242","-6.40789787952107"
"8230DB007793","Saint Lomans Road, stop 7793","53.3538559794199","-6.40761795504627"
"8230DB007800","The Paddocks Drive, stop 7800","53.3476213982454","-6.46546725968764"
"8230DB007801","The Paddocks Drive, stop 7801","53.3490241137165","-6.46481605746179"
"8230DB007806","St Andrews Drive, stop 7806","53.3545562472236","-6.42312515159078"
"8230DB007807","St Andrews Drive, stop 7807","53.3544684497227","-6.42260260567955"
"8230DB007808","Willsbrook Park, stop 7808","53.3529675481718","-6.42737492536049"
"8230DB007809","Willsbrook Park, stop 7809","53.3527419705171","-6.42730812072591"
"8230DB007810","Woodview Heights, stop 7810","53.3517430714705","-6.46308100994574"
"8230DB010334","Russell Lane, Stop No.10334","53.283831056973","-6.40293409081528"
"8230DB07755","Clayton Hotel, stop 7755","53.3535458643898","-6.40123005703322"
"8230GD10105","Scholarstown Park, stop 10105","53.2792508791934","-6.30996331240627"
"8230GD10106","St Colmcilles School, stop 10106","53.2793740217846","-6.31421742122971"
"8230GD10107","Tallaght Leisure Ctr, stop 10107","53.2823733249646","-6.3941100915567"
"8230GD10108","Glenshane Drive, stop 10108","53.2831736155329","-6.40015407520892"
"8230GD10109","Brookview Avenue, stop 10109","53.2856987742381","-6.41019864060513"
"8230GD10110","Ard Mor Drive, stop 10110","53.2844294338454","-6.42018938440119"
"8230GD10150","Ard Mor Drive, stop 10150","53.2853229414199","-6.4177567050833"
"8230GD10151","Brookview Avenue, stop 10151","53.2858013795766","-6.40980487257524"
"8230GD10152","Glenshane Drive, stop 10152","53.282976363568","-6.39818178176282"
"8230GD10153","Tallaght Leisure Ctr, stop 10153","53.2825295761624","-6.3936993054341"
"8230GD10154","Scholarstown Park, stop 10154","53.2793777050541","-6.31003328977482"
"8230GD10335","Rockeby Park, stop 10335","53.3637500211955","-6.45536141551962"
"8230GD10336","Rokeby Roundabout, stop 10336","53.3620036972458","-6.45515413311109"
"8230GD10385","Rathcoole, stop 10385","53.284167505961","-6.46342262467874"
"8240DB000124","Virgin Mary Church, stop 124","53.3948920736296","-6.26058900792246"
"8240DB000219","Ellenfield Road, stop 219","53.387827622861","-6.23853562762501"
"8240DB000221","Shanowen Road, stop 221","53.3897213027274","-6.24689223433638"
"8240DB000222","Shanliss Road, stop 222","53.3899454454426","-6.24930371665577"
"8240DB000223","Shanliss Drive, stop 223","53.3910623454498","-6.25191920389023"
"8240DB000224","Shanard Road, stop 224","53.3908348357294","-6.25418387834998"
"8240DB000225","Shanowen Avenue, stop 225","53.3906666786409","-6.25743845149745"
"8240DB000226","Shanard Avenue, stop 226","53.391140564198","-6.26220046436849"
"8240DB000227","Shanliss Drive, stop 227","53.3911438084096","-6.2513445055717"
"8240DB000229","Oldtown Road, stop 229","53.3913995158745","-6.25653643266204"
"8240DB000230","Shanowen Road, stop 230","53.3898880230189","-6.24906550786888"
"8240DB000231","Shanvarna Road Est, stop 231","53.3892400769873","-6.24594976380667"
"8240DB000232","Shantalla Avenue, stop 232","53.3879844259732","-6.23698057873024"
"8240DB000661","Westend Office Park, stop 661","53.3924222501907","-6.38348935657181"
"8240DB000679","Santa Sabina, stop 679","53.3864602347113","-6.10298249007741"
"8240DB000685","Sutton Park School, stop 685","53.3754098474896","-6.09484616348502"
"8240DB000693","St Fintan's Church, stop 693","53.3868925012978","-6.10416603844656"
"8240DB000733","Forest View, stop 733","53.4494332874232","-6.24047392331495"
"8240DB000788","The Oaks, stop 788","53.4458543541214","-6.24096812596938"
"8240DB000815","Forrest Little Golf, stop 815","53.4399383841386","-6.25001856534399"
"8240DB000905","Yellow Walls Road, stop 905","53.4515617429164","-6.17036978115391"
"8240DB000913","Baldoyle, stop 913","53.3968546328465","-6.12656607819496"
"8240DB000914","Willie Nolan Road, stop 914","53.398756896245","-6.12750513786135"
"8240DB000928","Baldoyle, stop 928","53.3978017565975","-6.12678012056698"
"8240DB000935","Station Road, stop 935","53.3932694394512","-6.12034794885844"
"8240DB000936","Strand Road, stop 936","53.394218242547","-6.12238126190697"
"8240DB000938","Red Arches Rd, stop 938","53.4015430636042","-6.13036064599338"
"8240DB000940","Moyne Cottages, stop 940","53.4065549106176","-6.13472849629383"
"8240DB000941","Moyne Bridge, stop 941","53.4100761024728","-6.13689098610447"
"8240DB000942","St Rita's House, stop 942","53.4150379805998","-6.13864489000412"
"8240DB000943","Portmarnock Bridge, stop 943","53.4182478297384","-6.14217580552131"
"8240DB000944","Coast Road, stop 944","53.4172420695427","-6.14223470115136"
"8240DB000945","St Rita's House, stop 945","53.4153095523378","-6.13876842932914"
"8240DB000947","Moyne Bridge, stop 947","53.4091864740115","-6.13632817520071"
"8240DB000948","Moyne Cottages, stop 948","53.4061434361123","-6.1342802188575"
"8240DB000949","The Coast, stop 949","53.4031715594786","-6.13161277863033"
"8240DB000950","Baldoyle Church, stop 950","53.3996460936412","-6.12803757377896"
"8240DB000951","Strand Road, stop 951","53.395842789197","-6.12452028380269"
"8240DB000952","Burrowfield Road, stop 952","53.3940655466295","-6.12181657388074"
"8240DB000953","Station Road, stop 953","53.3932183764484","-6.11995924178031"
"8240DB000957","Howth Junction, stop 957","53.3903211486831","-6.15781167148496"
"8240DB000973","Coolock Lane, stop 973","53.3982256279229","-6.24272290258508"
"8240DB000974","Santry Avenue, stop 974","53.3978594241115","-6.2471592144229"
"8240DB000975","Shanliss Way, stop 975","53.3992795836468","-6.25268017854965"
"8240DB000976","Geraldstown Wood, stop 976","53.40095667532","-6.26289828611284"
"8240DB000989","Santry Avenue, stop 989","53.4010421278597","-6.26259401981261"
"8240DB000990","Shanliss Way, stop 990","53.3988912223124","-6.25071100826044"
"8240DB000991","Santry Ave Ind Est, stop 991","53.3977053278442","-6.24645875735598"
"8240DB000992","Coolock Lane, stop 992","53.3981583599711","-6.24120680842807"
"8240DB001010","Saint Donagh's Park, stop 1010","53.3905899801755","-6.15834134990958"
"8240DB001039","Seamount View, stop 1039","53.4535389279966","-6.20530963202101"
"8240DB001040","Ashley Drive, stop 1040","53.4540357100229","-6.21206482786956"
"8240DB001041","Swords Road, stop 1041","53.454058151606","-6.21176272292669"
"8240DB001050","Seamount View, stop 1050","53.4536692617435","-6.20620761437365"
"8240DB001073","Chamley Park, stop 1073","53.450692509463","-6.18704512577386"
"8240DB001206","Balgriffin Cottages, stop 1206","53.4081055544578","-6.17810191981133"
"8240DB001207","Fingal Cemetery, stop 1207","53.4107260132191","-6.17901282484344"
"8240DB001208","St Doulagh's Church, stop 1208","53.4142982100495","-6.17867966152602"
"8240DB001209","St Doolagh's Park, stop 1209","53.4169569995458","-6.17797926593363"
"8240DB001210","Posey Row, stop 1210","53.4190328539605","-6.17736389860875"
"8240DB001211","St Nicholas NS, stop 1211","53.421295264871","-6.1766050660253"
"8240DB001212","Kinsealy School, stop 1212","53.4205603269249","-6.17674184269519"
"8240DB001213","Posey Row, stop 1213","53.4175012467015","-6.17771527064755"
"8240DB001214","St Doolagh's Park, stop 1214","53.415313243495","-6.17804954569553"
"8240DB001215","St Doulagh's Church, stop 1215","53.4133944396192","-6.17894394209968"
"8240DB001216","Fingal Cemetery, stop 1216","53.4103250597013","-6.17865388678538"
"8240DB001217","Balgriffin Cottages, stop 1217","53.4082020654792","-6.17794737507238"
"8240DB001545","Westend Office Park, stop 1545","53.392756634935","-6.38428863097672"
"8240DB001546","Tyrrelstown, stop 1546","53.4193454713398","-6.38249828063739"
"8240DB001580","Cappagh Cross, stop 1580","53.3979032077214","-6.33433315208017"
"8240DB001581","Cappagh Cross, stop 1581","53.3980680130001","-6.33390564981337"
"8240DB001645","Collins Avenue Ext, Stop No. 1645","53.3890906990771","-6.26401300259706"
"8240DB001813","Blanchardstown Vlge, stop 1813","53.3856797486868","-6.37410831307695"
"8240DB001814","Ramor Park, stop 1814","53.3875618067824","-6.37899788575982"
"8240DB001816","Waterville Row, stop 1816","53.3930899834755","-6.37838182081906"
"8240DB001817","Corduff Crescent, stop 1817","53.3960529762381","-6.37485570843332"
"8240DB001818","Aquatic Centre, stop 1818","53.3975634851834","-6.37225676270842"
"8240DB001819","Corduff, stop 1819","53.3996329874712","-6.37440346608328"
"8240DB001820","Corduff Grove, stop 1820","53.4010807396677","-6.37511526304498"
"8240DB001824","Saddlers Avenue, stop 1824","53.4007957912658","-6.39390969723512"
"8240DB001825","Church Road, stop 1825","53.4017651100128","-6.39581324479971"
"8240DB001826","Lady's Well Road, stop 1826","53.4059077232429","-6.3950858265632"
"8240DB001827","Parslickstown Ave, stop 1827","53.4070419408369","-6.39856273806064"
"8240DB001828","Lady's Well Road, stop 1828","53.4070254952438","-6.39800683658977"
"8240DB001829","Parslickstown Ave, stop 1829","53.4061988263103","-6.3953456019233"
"8240DB001830","Church Road, stop 1830","53.4022055984786","-6.39648848329619"
"8240DB001831","Coolmine Cottages, stop 1831","53.4007015089285","-6.39358239394382"
"8240DB001835","Corduff, stop 1835","53.4000123492856","-6.37520109047688"
"8240DB001836","Aquatic Centre, stop 1836","53.3980119951745","-6.37153286033092"
"8240DB001837","Corduff Crescent, stop 1837","53.3958410611648","-6.375134452531"
"8240DB001838","Waterville Road, stop 1838","53.396011085448","-6.37375958722472"
"8240DB001840","Blanchardstown Vlge, stop 1840","53.3879611512915","-6.37928339930348"
"8240DB001841","Church Road, stop 1841","53.3861213966848","-6.37551968724371"
"8240DB001842","Old Navan Road, stop 1842","53.3849679047277","-6.37133923962532"
"8240DB001844","Coolmine Fire Stn, stop 1844","53.3854112079392","-6.39611250672928"
"8240DB001850","Whitestown Park, stop 1850","53.3977476216513","-6.39916742143187"
"8240DB001852","Clonsilla Road, stop 1852","53.387406323427","-6.38343887581503"
"8240DB001853","Coolmine Woods, stop 1853","53.3846274925106","-6.38864041413814"
"8240DB001854","Orchard Court, stop 1854","53.3835844814974","-6.39194192378229"
"8240DB001856","Mountview Road, stop 1856","53.3903480644156","-6.40233187560914"
"8240DB001857","Mountview Church, stop 1857","53.3911220552945","-6.4077908206544"
"8240DB001858","Hartstown Road, stop 1858","53.3908816204693","-6.41065651029645"
"8240DB001859","Willow Wood, stop 1859","53.3910357837793","-6.41549216162457"
"8240DB001860","St Ciaran's Church, stop 1860","53.3932991276708","-6.41876115041911"
"8240DB001861","Hartstown Comm School, stop 1861","53.3967496163354","-6.41666332184699"
"8240DB001862","Pinebrook Vale, stop 1862","53.3986159886698","-6.41507518344002"
"8240DB001863","Huntstown Green, stop 1863","53.4006152913784","-6.41334660925842"
"8240DB001864","Sacred Heart Church, stop 1864","53.4018160068657","-6.41036928742599"
"8240DB001865","Ashfield Gardens, stop 1865","53.4010446332526","-6.40644280565795"
"8240DB001866","Ashfield Park, stop 1866","53.3998996519142","-6.40281619191824"
"8240DB001867","Whitestown, stop 1867","53.3958079083557","-6.39996201049262"
"8240DB001869","Sheepmoor Avenue, stop 1869","53.396248495111","-6.39997555553143"
"8240DB001870","Scoil Mhuire NS, stop 1870","53.3980564812208","-6.3994114716278"
"8240DB001871","Huntstown Way, stop 1871","53.399649860879","-6.40228416362546"
"8240DB001872","Huntstown Road, stop 1872","53.4007795004678","-6.40610682069241"
"8240DB001873","Sacred Heart Church, stop 1873","53.4017062047219","-6.41022298930773"
"8240DB001874","Huntstown Court, stop 1874","53.4002318019117","-6.41357141919566"
"8240DB001875","Pinebrook Vale, stop 1875","53.398266633517","-6.41516335701586"
"8240DB001876","Hartstown Comm Sch, stop 1876","53.3964359941154","-6.41673511439777"
"8240DB001877","St Ciaran's Church, stop 1877","53.3934219094112","-6.41853105535046"
"8240DB001878","Oakview, stop 1878","53.3911805158522","-6.41556196261037"
"8240DB001879","Blakestown Cross, stop 1879","53.3911728451108","-6.40957814300454"
"8240DB001880","Mount View Road, stop 1880","53.3912254456468","-6.40745618116919"
"8240DB001881","Fortlawn Drive, stop 1881","53.3905239771042","-6.40271620305252"
"8240DB001882","Millennium Park, stop 1882","53.3927725776921","-6.39881284842172"
"8240DB001883","Scoil Oilibheir, stop 1883","53.3857448894825","-6.39820466073975"
"8240DB001884","Porters Road, stop 1884","53.3855349556356","-6.39595751987255"
"8240DB001887","Castlefield Woods, stop 1887","53.3829965720365","-6.41045415416235"
"8240DB001888","Lambourn, stop 1888","53.383173287271","-6.41225148553078"
"8240DB001889","Castlefield Court, stop 1889","53.3834166164081","-6.41703786229412"
"8240DB001890","Clonsilla Station, stop 1890","53.3835365679968","-6.42202427927392"
"8240DB001895","Clonsilla Road, stop 1895","53.3835260117031","-6.41715406568756"
"8240DB001896","Lambourn, stop 1896","53.3833555648486","-6.41379306901692"
"8240DB001897","Castlefield Woods, stop 1897","53.3831119556836","-6.41034462756554"
"8240DB001902","Orchard Court, stop 1902","53.3835372603731","-6.39243978550486"
"8240DB001903","Broadway Road, stop 1903","53.3852498860271","-6.38747436943043"
"8240DB001904","Springlawn, stop 1904","53.3878416197081","-6.38306155733637"
"8240DB001912","Clonsilla Station, stop 1912","53.3836698113979","-6.42054613961033"
"8240DB002289","Blackcourt Road, stop 2289","53.401122996044","-6.3749181454336"
"8240DB002290","Waterville Terrace, stop 2290","53.3918736208035","-6.37221829316679"
"8240DB002294","Mill Road, stop 2294","53.3900864585251","-6.37034695742263"
"8240DB002338","Waterville Row, stop 2338","53.3930846748821","-6.37799108182299"
"8240DB002468","Blanchardstown Rd N, stop 2468","53.4043603607218","-6.3730651331953"
"8240DB002510","Rosemount Park, stop 2510","53.4021884304085","-6.35558195722211"
"8240DB002960","Retail Park, stop 2960","53.3943233176142","-6.38848464154602"
"8240DB003078","Forrest Little Golf, stop 3078","53.4402654487944","-6.24964384743186"
"8240DB003087","Forest Road, stop 3087","53.4461975809377","-6.24047217479148"
"8240DB003088","River Valley Heights, stop 3088","53.452727079109","-6.23710036947053"
"8240DB003089","Cherry Avenue, stop 3089","53.4489647580704","-6.23978564868836"
"8240DB003090","Forest View, stop 3090","53.4495837591114","-6.24153671095056"
"8240DB003340","Littlepace, stop 3340","53.4086679506828","-6.42894586872246"
"8240DB003565","Rush Road, stop 3565","53.5667590952703","-6.10218346400092"
"8240DB003566","Selskar Court, stop 3566","53.5780675047696","-6.12507050399751"
"8240DB003567","Skerries Station, stop 3567","53.5762792384516","-6.11993954602659"
"8240DB003569","Selskar Road, stop 3569","53.5765274956681","-6.12143871277586"
"8240DB003571","Selskar Court, stop 3571","53.5781445633731","-6.1253993462918"
"8240DB003572","Forest Road, stop 3572","53.4543273513193","-6.22438522745488"
"8240DB003573","Chapel Road, stop 3573","53.4260765801754","-6.17658099132016"
"8240DB003575","Chapel Road, stop 3575","53.4243220555027","-6.17646046973189"
"8240DB003576","Copperbush, stop 3576","53.4293151829997","-6.17794729354595"
"8240DB003577","Myra Manor, stop 3577","53.4321596017859","-6.17704298232149"
"8240DB003578","Streamstown Lane, stop 3578","53.4378137935193","-6.17708691844219"
"8240DB003579","Auburn House, stop 3579","53.4406701686004","-6.17637753818019"
"8240DB003580","Malahide Demense, stop 3580","53.4432561964679","-6.17385806444052"
"8240DB003583","St Sylvesters School, stop 3583","53.4493479035552","-6.1631625249754"
"8240DB003584","Cricket Club, stop 3584","53.4498545363505","-6.15987334791898"
"8240DB003585","Malahide Station, stop 3585","53.4506330921268","-6.15499132484144"
"8240DB003586","Malahide, stop 3586","53.4510580928538","-6.15108814682776"
"8240DB003587","The Old Golf Links, stop 3587","53.4511271472552","-6.14510743008015"
"8240DB003588","Sea Park, stop 3588","53.4499088963418","-6.14074888133154"
"8240DB003589","Biscayne, stop 3589","53.4460837138291","-6.13234940443323"
"8240DB003590","Muldowney Court, stop 3590","53.4487594020583","-6.1373511779913"
"8240DB003591","Robswall Crescent, stop 3591","53.4446336150143","-6.12756532644502"
"8240DB003592","Monks Meadow, stop 3592","53.4378792433162","-6.12271437882169"
"8240DB003593","Strand Road, stop 3593","53.4326864801107","-6.1245838208675"
"8240DB003594","Portmarnock Hotel, stop 3594","53.4296982618592","-6.12718355130874"
"8240DB003595","Blackberry Lane, stop 3595","53.427408223894","-6.12960176741938"
"8240DB003596","Blackberry Rise, stop 3596","53.4258334419757","-6.13120584227608"
"8240DB003597","The Dunes, stop 3597","53.423985366893","-6.13315282353757"
"8240DB003598","Portmarnock, stop 3598","53.4217393453328","-6.13609509819768"
"8240DB003599","Portmarnock, stop 3599","53.4216464103948","-6.13647533462087"
"8240DB003600","The Dunes, stop 3600","53.4235191917004","-6.13380524656016"
"8240DB003601","Blackberry Rise, stop 3601","53.4261017258079","-6.13111883041258"
"8240DB003602","Blackberry Lane, stop 3602","53.4283830499948","-6.12871620447889"
"8240DB003604","Portmarnock Crescent, stop 3604","53.4324293095069","-6.12480585510111"
"8240DB003605","Wendell Avenue, stop 3605","53.4339680619858","-6.12491871315417"
"8240DB003606","Kelvin Close, stop 3606","53.4349291947649","-6.13003907103477"
"8240DB003607","Redfern Avenue, stop 3607","53.4349010292874","-6.13628668774057"
"8240DB003608","Hillcourt, stop 3608","53.4310857730011","-6.13428642172757"
"8240DB003609","Carrickhill Rd Lower, stop 3609","53.4260851827363","-6.13408409155061"
"8240DB003610","Carrickhill Rd Lower, stop 3610","53.4257478599578","-6.13435468795172"
"8240DB003611","Ardilaun, stop 3611","53.4288464783475","-6.13363204181754"
"8240DB003612","Community School, stop 3612","53.4333688566491","-6.13659455646567"
"8240DB003613","Redfern Avenue, stop 3613","53.4350997464349","-6.13462231666519"
"8240DB003615","Briar Walk, stop 3615","53.4353131956598","-6.13160263373428"
"8240DB003616","Wendell Avenue, stop 3616","53.4342760576558","-6.12392681591466"
"8240DB003618","Monks Meadow, stop 3618","53.4386940037087","-6.12308488364282"
"8240DB003619","Robswall Crescent, stop 3619","53.4447042716455","-6.12805903347909"
"8240DB003620","Biscayne, stop 3620","53.446472388703","-6.13421430205896"
"8240DB003621","Muldowney Court, stop 3621","53.4483822211924","-6.13679554572945"
"8240DB003622","Sea Park, stop 3622","53.4494644047502","-6.13991006937344"
"8240DB003623","Mayfair, stop 3623","53.4506565379305","-6.14374269102433"
"8240DB003634","Malahide Station, stop 3634","53.4504553094367","-6.15511948757256"
"8240DB003635","Cricket Club, stop 3635","53.449639949498","-6.16053006209442"
"8240DB003636","St Sylvesters School, stop 3636","53.4494224481666","-6.16216557345162"
"8240DB003639","Malahide Castle, stop 3639","53.4454107846644","-6.17310320981936"
"8240DB003641","Estuary Road, stop 3641","53.4527251816362","-6.18358561013729"
"8240DB003642","Sacred Heart Church, stop 3642","53.4551261647174","-6.18129963413735"
"8240DB003643","Yellow Walls Rd, stop 3643","53.4512379025996","-6.16917912660035"
"8240DB003644","Malahide Demense, stop 3644","53.443012066436","-6.17376315649428"
"8240DB003645","Auburn House, stop 3645","53.4405342865832","-6.17630809129721"
"8240DB003646","Streamstown Lane, stop 3646","53.4391157583277","-6.17700107163855"
"8240DB003647","Myra Manor, stop 3647","53.432712597254","-6.17676345096692"
"8240DB003653","Feltrim Business Pk, stop 3653","53.4487177640997","-6.20447404234564"
"8240DB003656","Feltrim Business Pk, stop 3656","53.4485282298255","-6.20442181305556"
"8240DB003661","Copperbush, stop 3661","53.4291339315091","-6.17784970145637"
"8240DB003662","Baskin Lane, stop 3662","53.4232324468284","-6.17632654134701"
"8240DB003663","Corballis Park, stop 3663","53.4245979352668","-6.23489392667733"
"8240DB003664","Hampton Cove, stop 3664","53.6033990486272","-6.16822476981446"
"8240DB003669","Maldron Hotel, stop 3669","53.4284655392397","-6.23507978936044"
"8240DB003671","Airport Roundabout, stop 3671","53.429399459773","-6.23016510811246"
"8240DB003672","Stockhole Lane, stop 3672","53.4321755004888","-6.23007985141057"
"8240DB003674","Equestrian Centre, stop 3674","53.4410501588941","-6.22788947665299"
"8240DB003675","N1 Business Park, stop 3675","53.4433397443476","-6.22833612595684"
"8240DB003676","Airside, stop 3676","53.4467824882411","-6.22835845052747"
"8240DB003677","Colaiste Choilm, stop 3677","53.4523489406867","-6.22491949576315"
"8240DB003678","Swords Main Street, stop 3678","53.4553229225515","-6.22243125343164"
"8240DB003679","Fingal Co Co, stop 3679","53.4590816825662","-6.22013572290438"
"8240DB003682","Glasmore Park, stop 3682","53.4620240338837","-6.23124805217434"
"8240DB003686","Rathbeale Crescent, stop 3686","53.4619183810133","-6.23018312491807"
"8240DB003689","Fingal Co Co, stop 3689","53.4589359455208","-6.22000628107603"
"8240DB003690","Swords Main Street, stop 3690","53.4569564215033","-6.22106793165688"
"8240DB003691","Swords Main Street, stop 3691","53.4559770942225","-6.22169616486285"
"8240DB003692","Carlton Court, stop 3692","53.4534471045853","-6.2238196404277"
"8240DB003694","Pinnock Hill, stop 3694","53.4489963472981","-6.22673056334099"
"8240DB003695","Airside, stop 3695","53.4470560343454","-6.2280158425078"
"8240DB003696","N1 Business Park, stop 3696","53.443181908583","-6.22799644733441"
"8240DB003697","Equestrian Centre, stop 3697","53.4406857249216","-6.22755841839158"
"8240DB003698","Kettles Lane, stop 3698","53.4368181219866","-6.22737321115229"
"8240DB003699","Stockhole Lane, stop 3699","53.4350550460686","-6.2278830896445"
"8240DB003701","Ballintrane Wood, stop 3701","53.4526169020716","-6.2272271834134"
"8240DB003702","River Valley Drive, stop 3702","53.4519723495769","-6.23225306340103"
"8240DB003704","River Valley Road, stop 3704","53.4532572952191","-6.23953282020929"
"8240DB003705","Brookdale Drive, stop 3705","53.4528130716975","-6.24415881950415"
"8240DB003706","Forest Crescent, stop 3706","53.4512966547946","-6.24494411897015"
"8240DB003707","Rathingle Road, stop 3707","53.4523515091409","-6.24455429785117"
"8240DB003708","Hilltown Road, stop 3708","53.4532639461087","-6.23876459940814"
"8240DB003709","River Valley Heights, stop 3709","53.4526315736883","-6.23611052796771"
"8240DB003710","River Valley Drive, stop 3710","53.4520560081519","-6.23122568884024"
"8240DB003711","Swords Castle, stop 3711","53.4611903224169","-6.21869205328008"
"8240DB003712","North Street, stop 3712","53.4636490317222","-6.21721850587517"
"8240DB003713","Balheary Park, stop 3713","53.468688970211","-6.2134523277172"
"8240DB003714","Broad Meadow Bridge, stop 3714","53.4722193712691","-6.21092382391143"
"8240DB003715","Lissenhall Green, stop 3715","53.4800028356523","-6.20372561260328"
"8240DB003718","Newbridge Demesne, stop 3718","53.4804571614848","-6.162089910256"
"8240DB003719","Newbridge House, stop 3719","53.4819119471497","-6.17726083822005"
"8240DB003721","Donabate, stop 3721","53.4871678162613","-6.14847788551554"
"8240DB003722","Leisure Centre, stop 3722","53.4897930493523","-6.14215429245548"
"8240DB003723","Donabate NS, stop 3723","53.4925642879599","-6.13541655989337"
"8240DB003724","Rahillion, stop 3724","53.4929932372478","-6.12835906818348"
"8240DB003725","Middlefield Lane, stop 3725","53.4934941349544","-6.12304663135444"
"8240DB003726","Portrane Avenue, stop 3726","53.4931982482265","-6.11452883360842"
"8240DB003728","Healy's Lane, stop 3728","53.4960211071138","-6.11399659192212"
"8240DB003729","Burrow Road, stop 3729","53.4974367712364","-6.11485324687759"
"8240DB003730","Beach Lane, stop 3730","53.499295906529","-6.11647415571319"
"8240DB003732","Marsh Lane, stop 3732","53.5001003817182","-6.11847356672586"
"8240DB003733","Beach Lane, stop 3733","53.4994878490032","-6.11667668798492"
"8240DB003734","Burrow Road, stop 3734","53.4971736840986","-6.11469911025822"
"8240DB003735","Healy's Lane, stop 3735","53.4960010037429","-6.11386182538451"
"8240DB003736","Portrane, stop 3736","53.4933698119391","-6.11173284944418"
"8240DB003738","Portane Avenue, stop 3738","53.4931668361213","-6.11481659926312"
"8240DB003739","St Ita's Hospital, stop 3739","53.4876718837186","-6.11290529366328"
"8240DB003740","Rahillion, stop 3740","53.4928417056355","-6.12901384066871"
"8240DB003741","Donabate NS, stop 3741","53.4924878620206","-6.13627901214507"
"8240DB003743","Donabate, stop 3743","53.4867546434416","-6.14849588404196"
"8240DB003745","Newbridge Demesne, stop 3745","53.4802177511065","-6.163471401773"
"8240DB003746","Newbridge House, stop 3746","53.4820238422845","-6.17811492190557"
"8240DB003748","Batter Lane, stop 3748","53.4884854235207","-6.19702251846435"
"8240DB003749","Broad Meadow Bridge, stop 3749","53.471633714727","-6.21082794685197"
"8240DB003750","Balheary Park, stop 3750","53.468494936905","-6.21309896075834"
"8240DB003751","Carnegie Court, stop 3751","53.4608930052206","-6.21864425962326"
"8240DB003752","Seatown Villas, stop 3752","53.4624135038565","-6.21814382301438"
"8240DB003755","Turvey Avenue, stop 3755","53.4942829566007","-6.19525422384921"
"8240DB003756","Blake's Cross, stop 3756","53.5024830970323","-6.19189079814153"
"8240DB003757","Newhaggard, stop 3757","53.5044145430731","-6.18826572118784"
"8240DB003758","Hannas Avenue, stop 3758","53.5072797350736","-6.18517332744628"
"8240DB003759","Balleally West, stop 3759","53.5099079820889","-6.18010035950489"
"8240DB003760","Bridetree, stop 3760","53.5111519923776","-6.17798130273988"
"8240DB003761","Lusk Road, stop 3761","53.515307112072","-6.17285679215528"
"8240DB003762","Racecourse Commons, stop 3762","53.5187041352179","-6.16989042304626"
"8240DB003763","Barrack Lane, stop 3763","53.5236674544451","-6.16767040704382"
"8240DB003764","Station Road, stop 3764","53.5253252473376","-6.16441622194932"
"8240DB003765","Orlynn Park, stop 3765","53.5241359845343","-6.16013880779187"
"8240DB003766","Lusk House, stop 3766","53.5223650642048","-6.15312680691915"
"8240DB003767","Rosewood, stop 3767","53.5220353365436","-6.14866169054302"
"8240DB003768","Rogerstown Lane, stop 3768","53.5216491655538","-6.14578274323501"
"8240DB003769","Beau Hill, stop 3769","53.5205021551949","-6.13848798706636"
"8240DB003770","Rush & Lusk Stn, stop 3770","53.5213969241833","-6.1445871891098"
"8240DB003771","Whitestown Road, stop 3771","53.5186926354558","-6.13138867293843"
"8240DB003772","Spout Road, stop 3772","53.5181470140152","-6.1263907027183"
"8240DB003773","Carthy's Lane, stop 3773","53.5179068590052","-6.12368672805869"
"8240DB003774","Healy's Lane, stop 3774","53.5189039743541","-6.11622264446407"
"8240DB003775","Millbank Court, stop 3775","53.5215141277099","-6.10621283911697"
"8240DB003777","St Maur's Church, stop 3777","53.5226182911506","-6.10159352172826"
"8240DB003778","Rush Main Street, stop 3778","53.5227248253506","-6.09698852136516"
"8240DB003780","Chapel View, stop 3780","53.4855887311598","-6.14923986452968"
"8240DB003781","Skerries Road, stop 3781","53.5234704824121","-6.09132912482634"
"8240DB003782","Golden Ridge Cresc, stop 3782","53.5260853506949","-6.09128695104335"
"8240DB003783","Rush Cricket Club, stop 3783","53.5297294222045","-6.09153035043779"
"8240DB003784","Clifflands, stop 3784","53.5338404462522","-6.09062127959889"
"8240DB003785","Rush Athletic FC, stop 3785","53.5391041091759","-6.09266274645061"
"8240DB003786","Carnhill, stop 3786","53.5422415398732","-6.09608283629024"
"8240DB003787","Loughshinny Cross, stop 3787","53.5468359551958","-6.10126418211316"
"8240DB003788","Mine Road, stop 3788","53.5503077920523","-6.10198409377439"
"8240DB003789","Thomastown Resevoir, stop 3789","53.5541356638093","-6.10191839451744"
"8240DB003790","Pierstown Lane, stop 3790","53.5586314051561","-6.10259264072992"
"8240DB003791","Hacketstown Cottages, stop 3791","53.5625102767468","-6.10347578590542"
"8240DB003792","Hacketstown Park, stop 3792","53.5660089453488","-6.10248882342324"
"8240DB003793","Shenick Road, stop 3793","53.5699079438796","-6.10124216180164"
"8240DB003794","Skerries RFC, stop 3794","53.5730117634027","-6.10199400416438"
"8240DB003795","Brookville Lane, stop 3795","53.575045659431","-6.10442481224309"
"8240DB003797","Strand Street, stop 3797","53.5786897564769","-6.10637611681403"
"8240DB003798","Skerries, stop 3798","53.5803448686434","-6.10702707986981"
"8240DB003799","Church Street, stop 3799","53.5790556057911","-6.11075466941784"
"8240DB003801","North Cliff Heights, stop 3801","53.5806398481668","-6.12747889213862"
"8240DB003802","Mourne View, stop 3802","53.581822124392","-6.12549334885509"
"8240DB003805","Barnageeragh Road, stop 3805","53.5853221977156","-6.14823751759125"
"8240DB003806","Hampton Cove, stop 3806","53.6029773229811","-6.1676839093722"
"8240DB003807","Fancourt Heights, stop 3807","53.6050205376687","-6.1708142787451"
"8240DB003808","Craoibhin Park, stop 3808","53.6059096021511","-6.17724386956793"
"8240DB003809","Old Market Green, stop 3809","53.6061235042063","-6.17948638318013"
"8240DB003811","Hampton Street, stop 3811","53.6058812846354","-6.17479691609292"
"8240DB003812","Fancourt Heights, stop 3812","53.6051011443363","-6.17079568279347"
"8240DB003813","Ardgillan Demesne, stop 3813","53.5913860812859","-6.15619056937991"
"8240DB003814","Barnageeragh Road, stop 3814","53.5855991308795","-6.14870876887183"
"8240DB003815","Northcliffe Heights, stop 3815","53.5819436108113","-6.12521610454476"
"8240DB003816","Mourne Drive, stop 3816","53.5804715573738","-6.12763736417497"
"8240DB003818","Church Street, stop 3818","53.5798024373804","-6.11023806259029"
"8240DB003819","Skerries, stop 3819","53.5799971152318","-6.10663483687707"
"8240DB003820","Strand Street, stop 3820","53.5778728035672","-6.10586895136931"
"8240DB003822","Brookville Lane, stop 3822","53.5753694775006","-6.10444052635972"
"8240DB003823","Skerries RFC, stop 3823","53.5727715342585","-6.10158195029193"
"8240DB003824","Shenick Road, stop 3824","53.5697096288661","-6.10120574986669"
"8240DB003825","Hacketstown Cottages, stop 3825","53.5622935202558","-6.10341000058258"
"8240DB003826","Pierstown Lane, stop 3826","53.5584848258638","-6.10241805604802"
"8240DB003827","Thomastown Resevoir, stop 3827","53.553981778094","-6.10184981439338"
"8240DB003828","Mine Road, stop 3828","53.5499090065568","-6.10177555726791"
"8240DB003829","Loughshinny Cross, stop 3829","53.5472843209031","-6.10119883335695"
"8240DB003831","Carnhill, stop 3831","53.5424141125426","-6.09619580810311"
"8240DB003832","Rush Athletic FC, stop 3832","53.53914829575","-6.09261549394221"
"8240DB003833","Clifflands, stop 3833","53.5336598500652","-6.0905690600256"
"8240DB003834","Palmer Road, stop 3834","53.5309421868243","-6.09149089228839"
"8240DB003835","Rush Cricket Club, stop 3835","53.5288354241357","-6.091268856606"
"8240DB003836","Kilbrush Lane, stop 3836","53.5234141855296","-6.09118082630049"
"8240DB003837","Rush Main Street, stop 3837","53.5220169762716","-6.09261616569205"
"8240DB003838","Community Centre, stop 3838","53.5225261296347","-6.09636395702943"
"8240DB003840","Rush Garda Station, stop 3840","53.5228106233489","-6.10012189143009"
"8240DB003842","Millbank Court, stop 3842","53.521374240204","-6.10646039582848"
"8240DB003843","Old Road, stop 3843","53.5208014981105","-6.10945710465799"
"8240DB003844","Healy's Lane, stop 3844","53.5186992929845","-6.11635237691312"
"8240DB003845","Whitestown Cemetery, stop 3845","53.5176538464747","-6.12016898409767"
"8240DB003846","Spout Road, stop 3846","53.5181902558268","-6.12742938736615"
"8240DB003848","Beau Hill, stop 3848","53.5203475847667","-6.13837411073157"
"8240DB003849","Rush & Lusk Stn, stop 3849","53.5209865216093","-6.14189036504835"
"8240DB003850","Rogerstown Lane, stop 3850","53.5215937727836","-6.14626779387003"
"8240DB003851","Rosewood, stop 3851","53.5219290636691","-6.1481836908125"
"8240DB003852","Lusk House, stop 3852","53.5224688538198","-6.15402724186446"
"8240DB003853","Orlynn Park, stop 3853","53.5242348515783","-6.16072276404446"
"8240DB003854","Station Road, stop 3854","53.525349691861","-6.16483750303368"
"8240DB003855","Barrack Lane, stop 3855","53.523066118546","-6.16772653046028"
"8240DB003856","Racecourse Commons, stop 3856","53.5186133913821","-6.16983401040476"
"8240DB003857","Dublin Road, stop 3857","53.5147368648561","-6.17318292529202"
"8240DB003858","Bridetree, stop 3858","53.5109716606194","-6.17794380478892"
"8240DB003859","Balleally West, stop 3859","53.5098020319037","-6.1802255233863"
"8240DB003860","Hannas Avenue, stop 3860","53.5070761193669","-6.18537802839696"
"8240DB003861","Newhaggard, stop 3861","53.5048319803826","-6.18734334650223"
"8240DB003862","Blake's Cross, stop 3862","53.5022905025741","-6.19223065118361"
"8240DB003863","Turvey Avenue, stop 3863","53.4945347953814","-6.19467077304169"
"8240DB003864","Abbylea Close, stop 3864","53.4639991345919","-6.23413306202699"
"8240DB003865","Daleview Road, stop 3865","53.4660910636281","-6.23763104891063"
"8240DB003867","New Dairy Lane, stop 3867","53.4731849747067","-6.25678572619625"
"8240DB003881","New Dairy Lane, stop 3881","53.4733308925761","-6.25693039302786"
"8240DB003884","Pine Grove Park, stop 3884","53.4646015443386","-6.23475571196152"
"8240DB004321","Cold Stores, stop 4321","53.4115449191932","-6.37000801375909"
"8240DB004323","Whitestown Grove, stop 4323","53.3963288599558","-6.3939125127665"
"8240DB004324","Littlepace Gallops, stop 4324","53.4040177930608","-6.42663563137066"
"8240DB004325","Littlepace, stop 4325","53.4085874952729","-6.42897891690182"
"8240DB004330","Swords Pavilions SC, stop 4330","53.4547858681153","-6.21835781834225"
"8240DB004331","Seabury Road, stop 4331","53.4553999212174","-6.17920983948015"
"8240DB004339","Estuary Road, stop 4339","53.4526871929969","-6.18345171238108"
"8240DB004362","Millennium Park, stop 4362","53.3931135415902","-6.39876997645991"
"8240DB004381","Sutton Station, stop 4381","53.3916938974888","-6.11619218496429"
"8240DB004387","Malahide Village, stop 4387","53.4508653406917","-6.15257211826829"
"8240DB004464","Sheepmoor Grove, stop 4464","53.3941714457637","-6.39924150254818"
"8240DB004465","Hazel Court, stop 4465","53.4194716115307","-6.13995581550572"
"8240DB004489","Sheepmoor Grove, stop 4489","53.3944158097481","-6.39936766071922"
"8240DB004492","Cherryfield Park, stop 4492","53.3949984126484","-6.4181267537885"
"8240DB004493","Mountview Road, stop 4493","53.3905818145914","-6.40032343206002"
"8240DB004503","Hazel Grove, stop 4503","53.4190708477484","-6.1407707434684"
"8240DB004686","Shangan Road, stop 4686","53.3944262874519","-6.25884868486979"
"8240DB004687","Virgin Mary Church, stop 4687","53.3947744224784","-6.26053365812913"
"8240DB004742","Damastown Green, stop 4742","53.4109786125823","-6.42015115596055"
"8240DB004743","Damastown Drive, stop 4743","53.4116474009291","-6.42314993911754"
"8240DB004744","IBM Campus, stop 4744","53.4196069304","-6.4181160960463"
"8240DB004745","Damastown IBM, stop 4745","53.4204690922795","-6.41942316227849"
"8240DB004747","Blanchardstown SC, stop 4747","53.3943327828838","-6.39185248232822"
"8240DB004765","Huntstown Wood, stop 4765","53.4035321061144","-6.41438109242276"
"8240DB004766","Deerhaven, stop 4766","53.4038730130108","-6.41839911030624"
"8240DB004767","The Grove, stop 4767","53.4034730766314","-6.42349738438914"
"8240DB004768","Littlepace Park, stop 4768","53.4037970389348","-6.42625274112136"
"8240DB004769","The Grove, stop 4769","53.4035714974143","-6.42346366572206"
"8240DB004770","Deerhaven, stop 4770","53.4039694406902","-6.41821505404256"
"8240DB004820","Westmanstown Sports, stop 4820","53.3795826709907","-6.43917090427201"
"8240DB004826","Westmanstown Sports, stop 4826","53.3795403072038","-6.43936786040377"
"8240DB004893","Diswellstown Road, stop 4893","53.3701586378558","-6.3927632994252"
"8240DB004898","Castleknock College, stop 4898","53.3702758259909","-6.39278894351002"
"8240DB004903","Lohunda Road, stop 4903","53.3866640112341","-6.40173318091218"
"8240DB004925","Ballintrane Wood, stop 4925","53.4521609247239","-6.2286013426298"
"8240DB004926","Highfield Green, stop 4926","53.4544384960758","-6.22460646305411"
"8240DB004974","Aquatic Centre, stop 4974","53.3989987856554","-6.36941989342407"
"8240DB004976","Indoor Arena, stop 4976","53.4019837277497","-6.36226733035871"
"8240DB004978","Corporate Park, stop 4978","53.4092575333429","-6.37099799453746"
"8240DB004979","Alexion, stop 4979","53.411336778609","-6.37782310054472"
"8240DB004980","Blanchardstown Rd N, stop 4980","53.4042156050435","-6.37299545634352"
"8240DB004986","Curragh Hall, stop 4986","53.4152032703383","-6.38524305833723"
"8240DB004989","IBM Campus, stop 4989","53.4191096563709","-6.41789383144669"
"8240DB004990","Damastown Road, stop 4990","53.4117260673906","-6.42298155958629"
"8240DB004991","Damastown Green, stop 4991","53.4110854187663","-6.42007198510991"
"8240DB004992","Damastown Ind Park, stop 4992","53.4106754626599","-6.41762024198772"
"8240DB005055","Hazelwood, stop 5055","53.4003862026162","-6.25952270796646"
"8240DB005064","Balbriggan, stop 5064","53.605939488706","-6.18393728224182"
"8240DB005069","Somerton, stop 5069","53.4915007094791","-6.13926125841879"
"8240DB005071","Alexion, stop 5071","53.4109617026683","-6.37601723284506"
"8240DB005072","Corporate Park, stop 5072","53.4093093811824","-6.37084559393008"
"8240DB005073","Pinnockhill, stop 5073","53.4506387634233","-6.22354536361078"
"8240DB005074","Swords Pavilions, stop 5074","53.4531503866674","-6.21597187187092"
"8240DB005075","Rathbeale Road, stop 5075","53.4596633989707","-6.22359026293866"
"8240DB005076","Brackenstown Ave, stop 5076","53.4612534067963","-6.22837339300709"
"8240DB005077","Brackenstown Ave, stop 5077","53.4610751988294","-6.22726633313043"
"8240DB005078","Watery Lane, stop 5078","53.4598533729635","-6.2236726918968"
"8240DB005079","Swords Pavilions, stop 5079","53.4530190133113","-6.21560093598474"
"8240DB005096","Rathbeale Road, stop 5096","53.4726344563081","-6.25355434286806"
"8240DB005165","Willowbrook, stop 5165","53.4913768382373","-6.13938725430063"
"8240DB005175","Batter Lane, stop 5175","53.4897192928483","-6.19659340462066"
"8240DB005176","Whitestown Cemetery, stop 5176","53.517854710974","-6.1192250707836"
"8240DB006005","Plaza Apartments, stop 6005","53.4199426183244","-6.38345358073983"
"8240DB006009","Hazelwood, stop 6009","53.4001099014244","-6.25721799078829"
"8240DB006010","Waterside, stop 6010","53.4528771328388","-6.19836582126218"
"8240DB006015","Cherry Avenue, stop 6015","53.4483357564429","-6.23857706724624"
"8240DB006033","Rathingle Road, stop 6033","53.4478249675248","-6.23807125025827"
"8240DB006039","Waterville Terrace, stop 6039","53.3915619871697","-6.37573349378391"
"8240DB006048","Peter & Paul Church, stop 6048","53.6045004892092","-6.18446749406744"
"8240DB006054","Malahide Road, stop 6054","53.4542368080071","-6.21589621018242"
"8240DB006055","Waterside, stop 6055","53.4529145530048","-6.19786733193736"
"8240DB006073","Lohunda Court, stop 6073","53.3867027612682","-6.40194220363534"
"8240DB006076","Skerries GAA Club, stop 6076","53.5774603490436","-6.11218501277675"
"8240DB006077","Skerries Station, stop 6077","53.5759024088724","-6.11883874903704"
"8240DB006117","Swords Pavilions SC, stop 6117","53.4543803016732","-6.21587513605336"
"8240DB006126","Marymount Care Ctr, stop 6126","53.3740650582569","-6.43992876331897"
"8240DB006127","Marymount Care Ctr, stop 6127","53.3741384974665","-6.44004631415468"
"8240DB006135","Hillcourt, stop 6135","53.4312455162842","-6.13473093057642"
"8240DB006171","Waterville Road, stop 6171","53.395626876505","-6.37458624038971"
"8240DB006172","Lohunda Close, stop 6172","53.3866941802379","-6.40197259282329"
"8240DB006179","Mill Road, stop 6179","53.3895530035642","-6.37077328062274"
"8240DB006274","Aquatic Centre, stop 6274","53.3976783860083","-6.37145537264093"
"8240DB007002","Airside, stop 7002","53.4459849263626","-6.2242815712823"
"8240DB007025","Blanchardstown SC, stop 7025","53.3939910121294","-6.39183529559587"
"8240DB007026","Blanchardstown SC, stop 7026","53.3938952323943","-6.39206445355138"
"8240DB007039","Portane, stop 7039","53.4935223021176","-6.11000782650799"
"8240DB007040","Hearse Road R126","53.480550506063","-6.19176899466246"
"8240DB007072","Carlton Hotel, stop 7072","53.4192687601319","-6.37816811110938"
"8240DB007073","Carlton Hotel, stop 7073","53.4190813380993","-6.37826551658187"
"8240DB007097","Belgree Boulevard, stop 7097","53.4201410048362","-6.38483026083255"
"8240DB007098","Mount Eustace, stop 7098","53.4213365810099","-6.38817032190169"
"8240DB007099","Mount Garrett, stop 7099","53.4217821993041","-6.39122290765649"
"8240DB007100","Rathmore Crescent, stop 7100","53.4197588677532","-6.39181084800086"
"8240DB007101","Bealing Walk, stop 7101","53.4182584685745","-6.38718846260958"
"8240DB007102","Bealing Walk, stop 7102","53.4181504664114","-6.38717750516206"
"8240DB007103","Cruise Park, stop 7103","53.4198303804533","-6.39311711572295"
"8240DB007104","Mount Garrett, stop 7104","53.4219165430792","-6.39118774250755"
"8240DB007105","Mount Eustace, stop 7105","53.4213506902989","-6.38788391150304"
"8240DB007106","Bellgree Avenue, stop 7106","53.4209886478085","-6.38570089107588"
"8240DB007107","Ballentree Avenue, stop 7107","53.4170474415293","-6.38603072502407"
"8240DB007115","Nevinstown Lane, stop 7115","53.4449757756201","-6.22713892466897"
"8240DB007124","Ballycoolin  Bus Pk, stop 7124","53.4084344681321","-6.35815381158119"
"8240DB007125","Ballycoolin Bus Pk, stop 7125","53.4082421006173","-6.35789047220709"
"8240DB007126","IDA Ireland, stop 7126","53.4058768160178","-6.35647750443813"
"8240DB007133","Bunbury Gate Avenue, stop 7133","53.4679888317957","-6.24015831166195"
"8240DB007134","Rathbeale Cottages, stop 7134","53.4721514644547","-6.25187189846976"
"8240DB007135","Lispopple, stop 7135","53.4828147672095","-6.28812439675086"
"8240DB007136","Oakhill, stop 7136","53.4874392618613","-6.29600046386784"
"8240DB007145","Rathbeale Cottages, stop 7145","53.4721731244342","-6.25150946191035"
"8240DB007169","Leisure Centre, stop 7169","53.4898314017144","-6.14173062923243"
"8240DB007170","Harneys Lane, stop 7170","53.4933776141779","-6.12363959618945"
"8240DB007172","Old Road, stop 7172","53.5209860623578","-6.10919248925325"
"8240DB007173","Old Market Green, stop 7173","53.6061962793708","-6.17954370157421"
"8240DB007174","Peter & Paul Church, stop 7174","53.6039518983861","-6.18444569323118"
"8240DB007175","Ardgillan Demesne, stop 7175","53.5895431023562","-6.15441273347693"
"8240DB007204","Seaview, stop 7204","53.4928668715277","-6.10664575310075"
"8240DB007210","Airside Ind. Estate, stop 7210","53.4461428677588","-6.22281462109547"
"8240DB007219","Limelawn, stop 7219","53.3842507702055","-6.40274059432291"
"8240DB007224","Stadium Business Pk, stop 7224","53.3978166587198","-6.33844189162479"
"8240DB007227","Limelawn, stop 7227","53.3837882586066","-6.4031036640899"
"8240DB007237","Stadium Business Pk, stop 7237","53.3971412743413","-6.34158100949339"
"8240DB007238","Barnlodge, stop 7238","53.3971834122747","-6.34461698765796"
"8240DB007241","Barnlodge, stop 7241","53.3977448642458","-6.346865916319"
"8240DB007242","Ballycoolin Road, stop 7242","53.3984085729985","-6.35001323216176"
"8240DB007243","Rosemount Bus. Park, stop 7243","53.403352583087","-6.35788327542562"
"8240DB007247","Ballycoolin Road, stop 7247","53.3987923977988","-6.35177289546406"
"8240DB007292","Skerries GAA Club, stop 7292","53.5775343464489","-6.11231763515786"
"8240DB007297","Connolly Hospital, stop 7297","53.3880162566021","-6.37078686684586"
"8240DB007298","Connolly Hospital, stop 7298","53.3875691042444","-6.37029277862405"
"8240DB007318","Corporate Park, stop 7318","53.40991475103","-6.36844579885643"
"8240DB007319","Corporate Park, stop 7319","53.409577498545","-6.36875954775214"
"8240DB007334","Indoor Arena, stop 7334","53.4013768759059","-6.36323810481856"
"8240DB007342","Corporate Park 2, stop 7342","53.4127668338625","-6.36078495833773"
"8240DB007343","Corporate Park 2, stop 7343","53.4128446843872","-6.36121821689487"
"8240DB007344","IDA Ireland, stop 7344","53.4046892107179","-6.35769643124834"
"8240DB007348","Zone 15, stop 7348","53.4277439774233","-6.24161073929692"
"8240DB007374","Connolly Hospital, stop 7374","53.3839857796007","-6.36524326538739"
"8240DB007379","Mountview Road, stop 7379","53.3897483762813","-6.4005050355052"
"8240DB007381","Damastown Ind Park, stop 7381","53.4103480974658","-6.41597775306731"
"8240DB007389","Navan Road, stop 7389","53.3860184931313","-6.37060758380824"
"8240DB007505","Ballentree Avenue, stop 7505","53.4175790793027","-6.38613094865104"
"8240DB007570","Texaco Garage, stop 7570","53.413845079319","-6.36600872831362"
"8240DB007575","Texaco Garage, stop 7575","53.4137805509817","-6.36589085409853"
"8240DB007691","Main Street, stop 7691","53.4857151792822","-6.14927956714582"
"8240DB007692","Chamley Park, stop 7692","53.4508098878548","-6.18767252029316"
"8240DB007721","Turvey Ave, stop 7721","53.486449628411","-6.15608924286895"
"8240DB007722","Turvey Ave, stop 7722","53.486654437369","-6.15654752125227"
"8240DB007723","Semple Woods, Stop 7723","53.4828405334373","-6.15519100478006"
"8240DB007724","Semple Woods, Stop 7724","53.482887071238","-6.15529446434621"
"8240DB007725","Red Arches Rd, Stop No 7725","53.4012492816517","-6.12996745835215"
"8240DB010377","Applewood CC stop 10377","53.4706545634949","-6.2466309361427"
"8240DB010378","Rolestown stop 10378","53.48808641436","-6.30611659781715"
"8240DB010379","Rolestown stop 10379","53.488232914298","-6.30630666932492"
"8240DB010380","Applegreen CC stop 10380","53.4703801465552","-6.24569322970639"
"8240DB010381","Bunbury Gate Avenue, stop 10381","53.46806812192","-6.24004959005387"
"8250DB000430","Sydney Avenue, stop 430","53.3014190946172","-6.18600822030659"
"8250DB000431","Cross Avenue, stop 431","53.300551648423","-6.18925586166445"
"8250DB000432","Hyde Park Avenue, stop 432","53.2995559648268","-6.19294389296995"
"8250DB000433","Grove Avenue, stop 433","53.2986279440784","-6.19635883802383"
"8250DB000434","Woodlands Park, stop 434","53.2977014085819","-6.19987859145672"
"8250DB000444","Kilmacud Park, stop 444","53.2881364710411","-6.20754062011916"
"8250DB000445","Kilmacud House, stop 445","53.2856885255506","-6.20852802805345"
"8250DB000447","Stillorgan Luas, stop 447","53.2802181652868","-6.21055649261036"
"8250DB000448","Arena Road, stop 448","53.2748387450066","-6.20667259332131"
"8250DB000449","Blackthorn Road, stop 449","53.2763228251657","-6.2169273788984"
"8250DB000450","Heather Road, stop 450","53.2750940462784","-6.21349966939981"
"8250DB000453","Kilmacud Park, stop 453","53.2885862777473","-6.20756678779506"
"8250DB000462","Mount Merrion Avenue, stop 462","53.2969602392104","-6.20318037019709"
"8250DB000464","Southhill Avenue, stop 464","53.2982022449521","-6.19852223943131"
"8250DB000465","Clanfadda Wood, stop 465","53.2989007325988","-6.19597225486198"
"8250DB000466","Glenvar Park, stop 466","53.3000977676664","-6.19133060146645"
"8250DB000467","Cross Avenue, stop 467","53.3010000618783","-6.18800654129051"
"8250DB000468","Sydney Avenue, stop 468","53.302029237234","-6.1841667998389"
"8250DB000765","UCD, stop 765","53.3052550302822","-6.21686235884914"
"8250DB000767","UCD, stop 767","53.3052972525768","-6.21668053124508"
"8250DB000861","Roebuck Road, stop 861","53.3051704314455","-6.23595301016591"
"8250DB000862","Islamic Centre, stop 862","53.3036079757158","-6.23423182428764"
"8250DB000863","Carmelite Monastery, stop 863","53.3026660609672","-6.23192995723286"
"8250DB000864","Eurocampus, stop 864","53.3020144435584","-6.22799569563619"
"8250DB000865","Roebuck Castle, stop 865","53.3010358099886","-6.22565055855871"
"8250DB000866","Roebuck Hall, stop 866","53.3000569945672","-6.22209022578426"
"8250DB000867","Owenstown Park, stop 867","53.2996576898763","-6.21822086043925"
"8250DB000869","Roebuck Road, stop 869","53.3000428294025","-6.22234587908293"
"8250DB000870","Roebuck Castle, stop 870","53.3011318831947","-6.22606669236829"
"8250DB000873","Eurocampus, stop 873","53.3020918016762","-6.22896778594048"
"8250DB000874","Carmelite Monastery, stop 874","53.3026414662897","-6.23269621319062"
"8250DB000875","White Oaks, stop 875","53.3044729934849","-6.23559162446519"
"8250DB000876","Gledswood Drive, stop 876","53.3052232158178","-6.23709125937863"
"8250DB001035","Beaumont Avenue, stop 1035","53.2951037415434","-6.25612557753287"
"8250DB001055","Churchtown Road, stop 1055","53.2952167906763","-6.2558659370737"
"8250DB001281","Ely House, stop 1281","53.2942121915445","-6.27827435410315"
"8250DB001306","Rathfarnham Wood, stop 1306","53.2946579750669","-6.279891619367"
"8250DB001307","Ely House, stop 1307","53.2942028813019","-6.27762965813615"
"8250DB001308","Nutgrove Court, stop 1308","53.2936471979524","-6.27525178518625"
"8250DB001309","Loreto Avenue, stop 1309","53.2924722340512","-6.27169887465586"
"8250DB001310","Nutgrove Retail Park, stop 1310","53.2917165839057","-6.26731915076258"
"8250DB001311","Whitebarn Road, stop 1311","53.2921889289431","-6.26456985817921"
"8250DB001312","Good Shepherd Ch, stop 1312","53.2933099650373","-6.26131412008179"
"8250DB001313","Camberly Oaks, stop 1313","53.2941991032776","-6.25880272840948"
"8250DB001314","Nutgrove Avenue, stop 1314","53.2942267141968","-6.25823154104947"
"8250DB001315","Whitebarn Road, stop 1315","53.2921661624637","-6.26424076010727"
"8250DB001316","Good Shepherd Ch, stop 1316","53.293020743356","-6.26182090884644"
"8250DB001317","Nutgrove Retail Park, stop 1317","53.2919347714607","-6.26996547269055"
"8250DB001318","Loreto Avenue, stop 1318","53.2925350392176","-6.27231138276864"
"8250DB001319","Nutgrove Court, stop 1319","53.293710201811","-6.27587930843342"
"8250DB002007","Woodbine Road, stop 2007","53.3088750410416","-6.21611120483348"
"8250DB002008","Seafield Road, stop 2008","53.3056004028805","-6.21111575700179"
"8250DB002009","Radisson Hotel, stop 2009","53.303339573355","-6.20780413886582"
"8250DB002010","Booterstown Avenue, stop 2010","53.298897241336","-6.20467441020997"
"8250DB002013","St John of Gods, stop 2013","53.2853145290474","-6.19445989805429"
"8250DB002014","Brewery Road, stop 2014","53.282118255495","-6.19291493251431"
"8250DB002015","Knocksinna, stop 2015","53.2755348428749","-6.1790671072586"
"8250DB002016","Newtownpark Avenue, stop 2016","53.278208732131","-6.18406714943221"
"8250DB002017","Foxrock Church, stop 2017","53.2741965449207","-6.17501540656205"
"8250DB002018","Kill Lane, stop 2018","53.2744592482262","-6.1722151513901"
"8250DB002019","Foxrock Avenue, stop 2019","53.2758161237141","-6.16984795272005"
"8250DB002020","Foxrock Grove, stop 2020","53.2770520283641","-6.16663101237753"
"8250DB002021","Deansgrange Village, stop 2021","53.278177554394","-6.16442336821373"
"8250DB002022","Kill Abbey, stop 2022","53.2801026740348","-6.1616114092713"
"8250DB002023","Abbey Road, stop 2023","53.2812918182702","-6.15829093095012"
"8250DB002024","Rory O'Connor Park, stop 2024","53.2834492978017","-6.15947298224867"
"8250DB002025","Abbey Park, stop 2025","53.2849038275037","-6.16053535986143"
"8250DB002026","Monkstown Avenue, stop 2026","53.2866440580682","-6.15972563276102"
"8250DB002027","Monkstown Farm, stop 2027","53.2869591294885","-6.15684720954064"
"8250DB002028","Oliver Plunkett Ave, stop 2028","53.2853228023187","-6.15333293233462"
"8250DB002029","Oliver Plunkett Road, stop 2029","53.2838873843293","-6.14945027968796"
"8250DB002030","Oliver Plunkett Ct, stop 2030","53.2836776105677","-6.14693963922267"
"8250DB002031","Mounttown Road Lower, stop 2031","53.2861123043947","-6.14570933636029"
"8250DB002032","York Road, stop 2032","53.2895238358957","-6.14487156098934"
"8250DB002033","Knapton Court, stop 2033","53.2914782410353","-6.14339177356114"
"8250DB002034","Vesey Place, stop 2034","53.2927363386592","-6.14279715535515"
"8250DB002035","Crofton Road, stop 2035","53.2957723493687","-6.14266542172256"
"8250DB002036","Crofton  Avenue, stop 2036","53.2957927315752","-6.1382087898319"
"8250DB002037","Dun Laoghaire Stn, stop 2037","53.2937557133733","-6.13439692057818"
"8250DB002039","Dun Laoghaire Stn, stop 2039","53.2948871708172","-6.13490268686872"
"8250DB002040","Dun Laoghaire SC, stop 2040","53.2927911878307","-6.13536904926544"
"8250DB002041","St Michael's Hosp, stop 2041","53.2935976049862","-6.13923437692796"
"8250DB002042","Smith's Villas, stop 2042","53.2936511303445","-6.14266745416558"
"8250DB002043","Vesey Place, stop 2043","53.2924735173733","-6.14265854466943"
"8250DB002044","Knapton Court, stop 2044","53.2908723467688","-6.1437330675011"
"8250DB002045","Tivoli Terrace Sth, stop 2045","53.2890770531328","-6.14504092261009"
"8250DB002046","Mounttown Rd Lower, stop 2046","53.2858693158527","-6.14568986154818"
"8250DB002047","Oliver Plunkett Road, stop 2047","53.2836394538059","-6.14737623943136"
"8250DB002048","St Patrick's Cres, stop 2048","53.2840379343758","-6.15046366272218"
"8250DB002049","Oliver Plunkett Ave, stop 2049","53.2855976804673","-6.15425100962006"
"8250DB002050","Monkstown Avenue, stop 2050","53.2868425904862","-6.1568672257366"
"8250DB002051","Lanesville, stop 2051","53.2864489905228","-6.15989900807043"
"8250DB002052","Fosters Avenue, stop 2052","53.2996711529635","-6.21852037375249"
"8250DB002053","Abbey Park, stop 2053","53.2848462329975","-6.16029785598614"
"8250DB002054","Rory O'Connor Park, stop 2054","53.2832385379662","-6.15921207580309"
"8250DB002055","Casement Villas, stop 2055","53.2814599366222","-6.15811872882555"
"8250DB002056","Kill Lane, stop 2056","53.2794709315747","-6.16202844278692"
"8250DB002057","Deansgrange Village, stop 2057","53.27776207145","-6.16487606282291"
"8250DB002058","Foxrock Avenue, stop 2058","53.2765962321508","-6.16738531287752"
"8250DB002059","Foxrock Park, stop 2059","53.2751739745682","-6.17076010764204"
"8250DB002060","Foxrock Church, stop 2060","53.2739549356955","-6.17508567922552"
"8250DB002061","Knocksinna, stop 2061","53.2757586018619","-6.18018224993873"
"8250DB002062","Newtownpark Avenue, stop 2062","53.2790241110021","-6.18685192522411"
"8250DB002063","Galloping Green, stop 2063","53.2802940138438","-6.18997751901253"
"8250DB002064","Brewery Road, stop 2064","53.2827256391572","-6.1938491612378"
"8250DB002065","Merville Road, stop 2065","53.2847992148763","-6.19485659045157"
"8250DB002068","Greenfield Road, stop 2068","53.2980957596915","-6.20457300251724"
"8250DB002069","Booterstown Avenue, stop 2069","53.29977469015","-6.20564285265254"
"8250DB002070","St Thomas Road, stop 2070","53.3030660704342","-6.20814570183998"
"8250DB002071","Fosters Avenue, stop 2071","53.3030481818955","-6.20994703865895"
"8250DB002072","North Avenue, stop 2072","53.3018948785704","-6.21275610825435"
"8250DB002082","North Avenue, stop 2082","53.3019429377588","-6.21296416407775"
"8250DB002083","Stillorgan Road, stop 2083","53.303330222402","-6.20957512023302"
"8250DB002084","Seafield Road, stop 2084","53.3055267568845","-6.2115990204445"
"8250DB002820","Dundrum Business Pk, stop 2820","53.3032575442945","-6.24519986200581"
"8250DB002822","Dundrum Hospital, stop 2822","53.301089889892","-6.24570886380824"
"8250DB002823","Sommerville, stop 2823","53.2975220200097","-6.24635020158689"
"8250DB002825","Dundrum Luas, stop 2825","53.2924166488309","-6.24573429188541"
"8250DB002833","Greenlands, stop 2833","53.2743919240242","-6.22909358122"
"8250DB002841","Dundrum Centre, stop 2841","53.2871835811484","-6.24011399667947"
"8250DB002842","Ballinteer Road, stop 2842","53.2878600031513","-6.24637098081387"
"8250DB002843","Lynwood, stop 2843","53.2843248518879","-6.24557086843222"
"8250DB002844","Ashlawn, stop 2844","53.2826430204208","-6.24488988885862"
"8250DB002845","Wesley College, stop 2845","53.279546757209","-6.24459687254948"
"8250DB002846","Ballinteer Park, stop 2846","53.2772321151349","-6.24794581673386"
"8250DB002847","Ballinteer Court, stop 2847","53.2762539928915","-6.24989024356416"
"8250DB002848","Broadford Rise, stop 2848","53.2753559102051","-6.25546012554433"
"8250DB002849","Broadford Close, stop 2849","53.2774362059664","-6.25512046735249"
"8250DB002850","Broadford Drive, stop 2850","53.2796814911972","-6.25561386026841"
"8250DB002851","Broadford Walk, stop 2851","53.2806906440116","-6.25824221362374"
"8250DB002852","Ballinteer Comm Sch, stop 2852","53.2806956244479","-6.26104643995984"
"8250DB002853","Ballinteer Comm Sch, stop 2853","53.2808253392792","-6.26069624221379"
"8250DB002854","Broadford Walk, stop 2854","53.2807215412579","-6.25728115164174"
"8250DB002855","Chestnut Grove, stop 2855","53.2791896181865","-6.25516900458422"
"8250DB002856","Broadford Close, stop 2856","53.2771914752621","-6.25498047982097"
"8250DB002857","Ballinteer Drive, stop 2857","53.2747702695949","-6.25536401743205"
"8250DB002858","Ballinteer Avenue, stop 2858","53.2751860347258","-6.25245304316483"
"8250DB002859","Ballinteer Park, stop 2859","53.2769905048368","-6.24863050512461"
"8250DB002860","Mayfield Terrace, stop 2860","53.2781672750179","-6.24613802419266"
"8250DB002861","Wesley College, stop 2861","53.2795783392508","-6.24491050645244"
"8250DB002862","Ashlawn, stop 2862","53.2829171375863","-6.24519360704426"
"8250DB002863","Wyckham Park Road, stop 2863","53.2845895435253","-6.24584499206221"
"8250DB002864","The Gables, stop 2864","53.2871895996606","-6.24662342738975"
"8250DB002865","Holy Cross Church, stop 2865","53.2897040940093","-6.24403042598967"
"8250DB002866","Dundrum Luas, stop 2866","53.2915803668232","-6.2457085584151"
"8250DB002867","Notre Dame School, stop 2867","53.2939975275971","-6.24994497074111"
"8250DB002868","The Oaks, stop 2868","53.2938762631906","-6.24841976639734"
"8250DB002872","Overend Way, stop 2872","53.2891920060019","-6.23370144964376"
"8250DB002873","Knocknashee, stop 2873","53.2883054033833","-6.23088808822229"
"8250DB002874","Eden Park Avenue, stop 2874","53.2871567471639","-6.22738072040606"
"8250DB002877","Hazel Villas, stop 2877","53.2855267202001","-6.22113374052819"
"8250DB002878","Kilmacud Avenue, stop 2878","53.2842889066163","-6.21529083086972"
"8250DB002879","Marsham Court, stop 2879","53.284732381354","-6.21009787563055"
"8250DB002880","Kilmacud Avenue, stop 2880","53.2841925726951","-6.21485989602541"
"8250DB002882","Lakelands Lawn, stop 2882","53.2846137726057","-6.21838196295529"
"8250DB002883","Sweet Briar Lane, stop 2883","53.2856737575374","-6.22195256469793"
"8250DB002885","Eden Park Avenue, stop 2885","53.2870794681619","-6.22762390790287"
"8250DB002886","Knocknashee, stop 2886","53.2883466717405","-6.23124637559987"
"8250DB002887","Birches Lane, stop 2887","53.2891484246584","-6.23379324743729"
"8250DB002892","Rosemount Estate, stop 2892","53.2953536397676","-6.24619900684935"
"8250DB002893","Frankfort, stop 2893","53.2976070542482","-6.24663177263471"
"8250DB002894","Dundrum Hospital, stop 2894","53.3009317290331","-6.24595541243139"
"8250DB002895","Dundrum Business Pk, stop 2895","53.3030430609911","-6.24528368162703"
"8250DB002969","Marley Park, stop 2969","53.2794027289323","-6.27041174873558"
"8250DB002970","Grange Road, stop 2970","53.2781706300696","-6.2672673468708"
"8250DB002971","Stonemasons Way, stop 2971","53.2762927713665","-6.26422427079278"
"8250DB002978","Grange Road, stop 2978","53.2769944482242","-6.26550045621519"
"8250DB002979","Marley Park, stop 2979","53.2784652138343","-6.26836514411792"
"8250DB003011","Bird Avenue, stop 3011","53.305142314609","-6.24440229984208"
"8250DB003012","Bird Avenue, stop 3012","53.3052537916457","-6.24403759177333"
"8250DB003032","Blackrock Park, stop 3032","53.3023215359675","-6.18211375666533"
"8250DB003033","Blackrock Main St, stop 3033","53.3019932534287","-6.17827152157671"
"8250DB003046","Dun Laoghaire SC, stop 3046","53.2920057469249","-6.13514824197346"
"8250DB003047","George's St Upper, stop 3047","53.2901702910815","-6.1310130392851"
"8250DB003048","Sandycove Station, stop 3048","53.2884360889385","-6.12703875625878"
"8250DB003049","St Joseph's Church, stop 3049","53.28740610423","-6.1244138836199"
"8250DB003050","Glasthule, stop 3050","53.2869490232388","-6.12221398722346"
"8250DB003051","Sandycove Road, stop 3051","53.2861243256503","-6.11779540064788"
"8250DB003052","Elton Park, stop 3052","53.2859077245715","-6.114895095088"
"8250DB003053","Breffni Road, stop 3053","53.2855898368877","-6.11127933122854"
"8250DB003054","Ulverton Road, stop 3054","53.2841020240658","-6.10758033626926"
"8250DB003055","South Winds, stop 3055","53.2818349023691","-6.10688564831263"
"8250DB003056","Church Road, stop 3056","53.2803100842437","-6.10708802948226"
"8250DB003057","Dalkey Village, stop 3057","53.278384341361","-6.10694819720101"
"8250DB003058","Hyde Road, stop 3058","53.2783993292416","-6.10789231429021"
"8250DB003059","Church Road, stop 3059","53.2800139122802","-6.10711611757965"
"8250DB003060","The Paddocks, stop 3060","53.2821419601023","-6.10697705836505"
"8250DB003061","Our Lady's Manor, stop 3061","53.2841599607951","-6.10783275052506"
"8250DB003062","Breffni Road, stop 3062","53.2855435411939","-6.11176134122501"
"8250DB003063","Sandycove Road, stop 3063","53.2859751405778","-6.1163170447788"
"8250DB003064","Brudett Avenue, stop 3064","53.2860328652453","-6.11940433013809"
"8250DB003065","Glasthule, stop 3065","53.2869934492902","-6.12275201988678"
"8250DB003066","St Joseph's Church, stop 3066","53.2877232595929","-6.12571996545645"
"8250DB003067","Sandycove Station, stop 3067","53.2884048690809","-6.1273401212366"
"8250DB003068","George's St Upper, stop 3068","53.2898294885121","-6.13048790165208"
"8250DB003069","Corrig Avenue, stop 3069","53.2907530253444","-6.13263768269568"
"8250DB003070","Dun Laoghaire SC, stop 3070","53.2921151004321","-6.13581853383444"
"8250DB003082","Frascati Road, stop 3082","53.3004535895221","-6.17809699943878"
"8250DB003083","Frascati SC, stop 3083","53.3012352449842","-6.18101957436641"
"8250DB003085","Blackrock Station, stop 3085","53.3024801381003","-6.17837083201596"
"8250DB003091","Avondale Road, stop 3091","53.2736454077168","-6.12387685471155"
"8250DB003092","Arnold Grove, stop 3092","53.2720738489749","-6.12682457731465"
"8250DB003093","Arnold Park, stop 3093","53.2703459406442","-6.13012375959349"
"8250DB003094","Cluny Grove, stop 3094","53.2691938472355","-6.12716040495796"
"8250DB003095","Ballinaclea Road, stop 3095","53.2708529483983","-6.12178006372289"
"8250DB003096","Killiney Road, stop 3096","53.2704560954289","-6.11827394585391"
"8250DB003097","Wyvern Estate, stop 3097","53.2699201637888","-6.11507388130071"
"8250DB003098","Killiney Hill Park, stop 3098","53.2678688883589","-6.11438450210839"
"8250DB003099","Victoria Road, stop 3099","53.2648499504284","-6.11502707465858"
"8250DB003100","Killiney Hill Park, stop 3100","53.2681764152035","-6.11450590366031"
"8250DB003101","Killiney Road, stop 3101","53.2699357788579","-6.11549301276968"
"8250DB003102","Killiney Grove, stop 3102","53.2704251330561","-6.11859017315311"
"8250DB003103","Ballinaclea Road, stop 3103","53.2708846275614","-6.12150878580079"
"8250DB003105","Avondale Road, stop 3105","53.2712024082013","-6.12914175904709"
"8250DB003106","Arnold Grove, stop 3106","53.2720024251659","-6.12742746894435"
"8250DB003107","Avondale Park, stop 3107","53.2733749757751","-6.12439851885852"
"8250DB003108","Bellevue Avenue, stop 3108","53.2745892672627","-6.12331068476039"
"8250DB003111","Barnhill Avenue, stop 3111","53.2773836570227","-6.11527029466556"
"8250DB003126","Old Bray Road, stop 3126","53.2654127994802","-6.15909343780998"
"8250DB003129","Johnstown Road, stop 3129","53.2624552680705","-6.15036092469467"
"8250DB003134","Wyattville Road, stop 3134","53.2469068045112","-6.13603133529256"
"8250DB003139","Stonebridge Close, stop 3139","53.2300638456036","-6.1240904706735"
"8250DB003140","Stonebridge Close, stop 3140","53.2297600975681","-6.12420860762246"
"8250DB003143","St Columcille's Hosp, stop 3143","53.2426905108406","-6.13082038272708"
"8250DB003144","Cherrywood Road, stop 3144","53.2456905241041","-6.13527501799824"
"8250DB003153","Old Bray Road, stop 3153","53.265816313638","-6.15903112569044"
"8250DB003165","Carysfort Avenue, stop 3165","53.2993460724149","-6.17973453749181"
"8250DB003166","UCD Smurfit, stop 3166","53.2970117180469","-6.18049394346944"
"8250DB003167","Brookfield Terrace, stop 3167","53.2949238963125","-6.18032765905784"
"8250DB003168","Proby Square, stop 3168","53.2922416290294","-6.18008165147668"
"8250DB003169","St Augustine's Sch, stop 3169","53.2885728296971","-6.1805676074417"
"8250DB003171","Newtown Park, stop 3171","53.2874250402199","-6.17662651860837"
"8250DB003173","Meadow Close, stop 3173","53.2847051420341","-6.17744727384318"
"8250DB003174","Granville Park, stop 3174","53.2821483562864","-6.18012068911302"
"8250DB003175","Stillorgan Road, stop 3175","53.2796195211659","-6.18345245110443"
"8250DB003176","Leopardstown Rd, stop 3176","53.2775748248365","-6.18611848943718"
"8250DB003177","Foxrock Manor, stop 3177","53.2760723085162","-6.18838645607353"
"8250DB003178","Torquay Road, stop 3178","53.2743714301451","-6.19298684770473"
"8250DB003179","Racecourse, stop 3179","53.2730037855412","-6.19883237713364"
"8250DB003181","Carmanhall Road, stop 3181","53.2767339177538","-6.20777790443499"
"8250DB003182","Heather Road, stop 3182","53.2752119417082","-6.21416953321058"
"8250DB003183","Bracken Road, stop 3183","53.2761898780237","-6.21705287699585"
"8250DB003184","Moreen Avenue, stop 3184","53.2761924013825","-6.22384571458293"
"8250DB003187","Burton Hall Road, stop 3187","53.2738266122591","-6.2033261713868"
"8250DB003188","Racecourse, stop 3188","53.2731773978783","-6.19902000524389"
"8250DB003189","Silverpark GAA, stop 3189","53.2738443410915","-6.19557317570229"
"8250DB003190","Torquay Road, stop 3190","53.2748845875622","-6.191855565051"
"8250DB003191","Foxrock Manor, stop 3191","53.2763141538347","-6.18833124044099"
"8250DB003192","Kelston Park, stop 3192","53.2774821726707","-6.18652730499111"
"8250DB003193","Newtownpark Avenue, stop 3193","53.279833502812","-6.18333839712383"
"8250DB003194","Holly Park Avenue, stop 3194","53.2832613825827","-6.1788435482307"
"8250DB003195","Meadow Close, stop 3195","53.2848953777113","-6.17754416687622"
"8250DB003196","Newtown Park, stop 3196","53.2873803132475","-6.1772284026053"
"8250DB003198","Carysfort Avenue, stop 3198","53.2898856439964","-6.18060181667805"
"8250DB003199","Proby Square, stop 3199","53.292584564595","-6.18017208082175"
"8250DB003200","UCD Smurfit, stop 3200","53.2966726719488","-6.18065838407955"
"8250DB003201","Frascati Road, stop 3201","53.2995347040481","-6.1797265143382"
"8250DB003202","Glenageary Rd Lower, stop 3202","53.2888504756656","-6.12996064936531"
"8250DB003203","Traverslea Close, stop 3203","53.2852204971734","-6.13233901798263"
"8250DB003204","Silchester Park, stop 3204","53.2824353372615","-6.13414025296547"
"8250DB003205","Sallynoggin Road, stop 3205","53.2793911386587","-6.1371972559117"
"8250DB003206","Honey Park, stop 3206","53.2782322995408","-6.13954210333348"
"8250DB003207","Pearse Close, stop 3207","53.2772592107742","-6.14054411800671"
"8250DB003208","St Kevin's School, stop 3208","53.276187331821","-6.13867120873364"
"8250DB003209","Pearse Street, stop 3209","53.2744369005486","-6.13766762979155"
"8250DB003210","Sallynoggin College, stop 3210","53.2735043400211","-6.13953752853229"
"8250DB003211","Beechwood Lawn, stop 3211","53.2712876284922","-6.13802944766509"
"8250DB003212","Granitefield, stop 3212","53.2691150351549","-6.13992305144187"
"8250DB003213","Killiney SC, stop 3213","53.267061992522","-6.13623408218761"
"8250DB003214","Churchview Road, stop 3214","53.2646008432281","-6.13461709780435"
"8250DB003215","Auburn Drive, stop 3215","53.2620312700783","-6.13756219248251"
"8250DB003216","Kilbogget Park, stop 3216","53.2588723069006","-6.1378793432369"
"8250DB003217","Ballybrack SC, stop 3217","53.2570425975944","-6.13583040408577"
"8250DB003218","Pinewood, stop 3218","53.2549234444038","-6.13252024013518"
"8250DB003219","Oakton Park, stop 3219","53.2531103794186","-6.13096557739732"
"8250DB003220","Wyattville Close, stop 3220","53.2507234860863","-6.13294298249134"
"8250DB003221","Loughlinstown Drive, stop 3221","53.2489840370973","-6.13264407779509"
"8250DB003222","Loughlinstown Park, stop 3222","53.2466024812069","-6.12865680557182"
"8250DB003223","Loughlinstown Drive, stop 3223","53.2491504109891","-6.13293655553746"
"8250DB003224","Ashlawn, stop 3224","53.2519458475769","-6.13236519549721"
"8250DB003225","Ballybrack SC, stop 3225","53.2552948672851","-6.13385300991221"
"8250DB003226","Kilbogget Park, stop 3226","53.2585470715912","-6.13777355798243"
"8250DB003227","Auburn Drive, stop 3227","53.2619541741584","-6.13780539377764"
"8250DB003228","Church Road, stop 3228","53.2647542453765","-6.13465539470502"
"8250DB003229","Churchview Road, stop 3229","53.2653527759427","-6.13441945272899"
"8250DB003230","Drumkeen Manor, stop 3230","53.2685015291178","-6.13920003918439"
"8250DB003231","Granitefield, stop 3231","53.2700894891205","-6.14188987343802"
"8250DB003232","Pearse Villas, stop 3232","53.271603968895","-6.14044473324485"
"8250DB003233","Pearse Street, stop 3233","53.2727414786546","-6.14134000425089"
"8250DB003234","Sallynoggin College, stop 3234","53.273603612972","-6.13956320637259"
"8250DB003235","Pearse Park, stop 3235","53.277180707391","-6.14069748612017"
"8250DB003236","Honey Park, stop 3236","53.2779835040123","-6.14030272461487"
"8250DB003237","Sarsfield Street, stop 3237","53.2791423584346","-6.13795791119735"
"8250DB003238","Holmston Avenue, stop 3238","53.283309733396","-6.13372719850771"
"8250DB003239","Crosthwaite Park, stop 3239","53.2843864951823","-6.13303533097992"
"8250DB003240","Corrig Road, stop 3240","53.2871718711238","-6.13124892862004"
"8250DB003241","Sallynoggin Park, stop 3241","53.2772562014985","-6.14150399385453"
"8250DB003242","O'Rourke Park, stop 3242","53.2753571003472","-6.14538021813824"
"8250DB003243","Somerton, stop 3243","53.2741733398162","-6.14844545130621"
"8250DB003244","Garden Centre, stop 3244","53.2725500612644","-6.14578664145038"
"8250DB003245","Johnstown Road, stop 3245","53.2706836138455","-6.14252382818304"
"8250DB003246","Johnstown Road, stop 3246","53.2710762760995","-6.14349639706772"
"8250DB003247","Garden Centre, stop 3247","53.2726452445483","-6.14612739248417"
"8250DB003248","Sallynoggin Road, stop 3248","53.2747560281376","-6.14834528850198"
"8250DB003249","Mackinstosh Park, stop 3249","53.2730249564083","-6.15321836019988"
"8250DB003254","Saint Gabriels, stop 3254","53.2636615721677","-6.14816510931458"
"8250DB003255","Cornelscourt SC, stop 3255","53.2664828488668","-6.16320030317311"
"8250DB003256","Cornelscourt Village, stop 3256","53.2688188191688","-6.16663850668486"
"8250DB003260","Cornelscourt Village, stop 3260","53.2696908070496","-6.16664617181178"
"8250DB003261","Willow Grove, stop 3261","53.2681805992319","-6.16605111268394"
"8250DB003262","Cornelscourt SC, stop 3262","53.2657264011007","-6.16135873876058"
"8250DB003265","Mart Lane, stop 3265","53.2695007972677","-6.16773381612112"
"8250DB003266","St Brigid's School, stop 3266","53.2693227318173","-6.17018531873717"
"8250DB003267","Gordon Avenue, stop 3267","53.2688643930384","-6.17546743834199"
"8250DB003268","Plunkett Avenue, stop 3268","53.267754682689","-6.17872311192688"
"8250DB003269","Hainault Road, stop 3269","53.2672336827671","-6.1810990674939"
"8250DB003270","Foxrock Village, stop 3270","53.2665831476899","-6.18382527599728"
"8250DB003271","The Coppins, stop 3271","53.2636991421826","-6.18154892158415"
"8250DB003272","Tresillian, stop 3272","53.2621411829634","-6.18017593061482"
"8250DB003273","Kerrymount Avenue, stop 3273","53.2603082924392","-6.17787035112939"
"8250DB003274","Brighton Avenue, stop 3274","53.2584906455204","-6.17421527414901"
"8250DB003275","Mountsandel Park, stop 3275","53.258098097115","-6.17088939618111"
"8250DB003276","Glenamuck Rd North, stop 3276","53.2571100245324","-6.17093156160058"
"8250DB003277","The View, stop 3277","53.2482370009346","-6.18199496077094"
"8250DB003278","Rockville Drive, stop 3278","53.2449049273888","-6.18688634685962"
"8250DB003279","Cromlech Close, stop 3279","53.2396615095453","-6.19555828208159"
"8250DB003280","Wayside Cottages, stop 3280","53.2377713031924","-6.19538310592198"
"8250DB003282","Kiltiernan Village, stop 3282","53.2357465353774","-6.19344580292079"
"8250DB003283","Kiltiernan Village, stop 3283","53.2357973490453","-6.19383317906762"
"8250DB003284","Golden Ball, stop 3284","53.2392794199912","-6.19644334783147"
"8250DB003285","Rockville Drive, stop 3285","53.2448461497781","-6.18715855430812"
"8250DB003289","Brennanstown Road, stop 3289","53.25711232303","-6.17108135247224"
"8250DB003290","Brighton Road, stop 3290","53.2580930221102","-6.17114442981738"
"8250DB003291","Tresillian, stop 3291","53.2615917093226","-6.17950970337497"
"8250DB003292","The Coppins, stop 3292","53.2634199983594","-6.18151579385623"
"8250DB003293","Foxrock Village, stop 3293","53.2662399854055","-6.18371988492202"
"8250DB003294","Westminster Road, stop 3294","53.2673647624361","-6.18085362359111"
"8250DB003295","Plunkett Avenue, stop 3295","53.2679631655044","-6.17824947680323"
"8250DB003296","Gordon Avenue, stop 3296","53.269209205506","-6.17509291931304"
"8250DB003297","Mart Lane, stop 3297","53.269679863681","-6.17295881801031"
"8250DB003298","St Brigid's School, stop 3298","53.2693929924091","-6.16949263090429"
"8250DB003306","Sycamore Drive, stop 3306","53.2633563372635","-6.16855121909565"
"8250DB003307","Kerrymount Green, stop 3307","53.2662010113224","-6.16649565282208"
"8250DB003309","Kerrymount Green, stop 3309","53.2669288131434","-6.16589479982841"
"8250DB003312","Hainault Road, stop 3312","53.2618792736605","-6.17011340048591"
"8250DB003321","Stillorgan SC, stop 3321","53.2884693637268","-6.2004017791184"
"8250DB003322","Stillorgan SC, stop 3322","53.2880841456215","-6.20167794316128"
"8250DB003343","O'Rourke Park, stop 3343","53.2761981804971","-6.14397919649076"
"8250DB003346","Westminster Road, stop 3346","53.2697298276986","-6.17328654000999"
"8250DB003478","Golden Ball, stop 3478","53.2390505484196","-6.19616830395543"
"8250DB003491","Lambs Cross, stop 3491","53.2655320423383","-6.22926487187563"
"8250DB003493","Lambs Cross, stop 3493","53.2652072461263","-6.22978800774307"
"8250DB003494","Blackglen Road, stop 3494","53.2654029954657","-6.23450229203255"
"8250DB003532","Blackglen Road, stop 3532","53.2647946193703","-6.24016413495555"
"8250DB003533","Blackglen Court, stop 3533","53.2654719728793","-6.2343045583035"
"8250DB003534","Churchview Road, stop 3534","53.2548686122211","-6.13016948067354"
"8250DB003535","Church Road, stop 3535","53.2568175242791","-6.12720659406664"
"8250DB003536","Ballybrack Village, stop 3536","53.2538610846826","-6.12496767711338"
"8250DB003537","Ballybrack Cross, stop 3537","53.2519528920837","-6.12365732889128"
"8250DB003538","Sheelin Estate, stop 3538","53.2496624405552","-6.12318808857716"
"8250DB003539","River Close, stop 3539","53.2440183365468","-6.12151711523642"
"8250DB003540","Shanganagh Bridge, stop 3540","53.2426809255031","-6.12163563524093"
"8250DB003541","Hazelwood, stop 3541","53.2388260877792","-6.12285324474744"
"8250DB003542","Rathsallagh, stop 3542","53.2364001688533","-6.12291446549235"
"8250DB003543","St Anne's Church, stop 3543","53.2337286400103","-6.1233609435765"
"8250DB003545","Shankill Church, stop 3545","53.2337673981418","-6.12353901822404"
"8250DB003546","Shankill Station, stop 3546","53.2374861507462","-6.11768311444606"
"8250DB003547","Shanganagh Park, stop 3547","53.239464830326","-6.11662238962307"
"8250DB003548","Shanganagh Cliffs, stop 3548","53.2418375468685","-6.11603871162226"
"8250DB003551","Rathsallagh Drive, stop 3551","53.2395934209511","-6.11679653763016"
"8250DB003552","Rathsallagh, stop 3552","53.2372028920208","-6.12308908529293"
"8250DB003553","Hazelwood, stop 3553","53.2390265275583","-6.12302426441118"
"8250DB003554","Shanganagh Bridge, stop 3554","53.2428981515326","-6.12173100876907"
"8250DB003555","Aran Avenue, stop 3555","53.2449122993181","-6.12177764830752"
"8250DB003556","The Elms, stop 3556","53.2481179653389","-6.12328566799662"
"8250DB003557","Sheelin Estate, stop 3557","53.2493962745787","-6.12340954850205"
"8250DB003560","Ballybrack Village, stop 3560","53.2528818111003","-6.12442599679716"
"8250DB003561","Wyattville Road, stop 3561","53.2567032587553","-6.12851561718508"
"8250DB003563","Kilmacud Road Lower, stop 3563","53.2886318993725","-6.2046249072182"
"8250DB004124","Claremount, stop 4124","53.2278303200561","-6.12438284585774"
"8250DB004125","Shanganagh Castle, stop 4125","53.2234316454002","-6.1236015801599"
"8250DB004126","Shanganagh Cemetery, stop 4126","53.2221831727114","-6.12194881112964"
"8250DB004127","St James's Church, stop 4127","53.2187787041551","-6.11980650872771"
"8250DB004128","Woodbrook College, stop 4128","53.2159235278162","-6.11943740756946"
"8250DB004202","Woodbrook College, stop 4202","53.2160003459128","-6.11974850993044"
"8250DB004203","St James's Church, stop 4203","53.2197605963327","-6.12051229350618"
"8250DB004204","Shanganagh Castle, stop 4204","53.2233240936238","-6.12362125997845"
"8250DB004205","Crinken Lane, stop 4205","53.2245394732772","-6.12488614796323"
"8250DB004206","Claremount, stop 4206","53.2275029229311","-6.12471170908811"
"8250DB004313","Ballyogan Luas, stop 4313","53.2549233557678","-6.1842893485423"
"8250DB004332","Nutgrove SC, stop 4332","53.2900844163619","-6.2688102286199"
"8250DB004333","Marley Court, stop 4333","53.2862368956866","-6.26629599350209"
"8250DB004334","Dargle View, stop 4334","53.2838186203641","-6.26502908175173"
"8250DB004336","Marley Court, stop 4336","53.2861764128264","-6.26646342980325"
"8250DB004337","Nutgrove SC, stop 4337","53.2907250320848","-6.26897932936458"
"8250DB004349","Blackthorn Drive, stop 4349","53.2758454958058","-6.22771389786936"
"8250DB004350","Moreen Avenue stop 4350","53.2761884314741","-6.22297614309675"
"8250DB004393","Ballyogan Avenue, stop 4393","53.2593873591364","-6.19354371656544"
"8250DB004395","Ballyogan Court, stop 4395","53.2572217971814","-6.18943809845044"
"8250DB004396","Ballyogan Road, stop 4396","53.2568126626389","-6.19327750999971"
"8250DB004397","The Rise, stop 4397","53.2755141993779","-6.25153994601316"
"8250DB004457","Ravenscourt Park, stop 4457","53.2750555665801","-6.20913770558264"
"8250DB004460","Whately Place, stop 4460","53.2872824764725","-6.2081313492505"
"8250DB004462","Sallynoggin, stop 4462","53.2751672745563","-6.13781581797221"
"8250DB004477","Kilmacud Road Lower, stop 4477","53.2889726058703","-6.20516561858125"
"8250DB004486","Dundrum Centre, stop 4486","53.2888894378808","-6.24547382461718"
"8250DB004565","Kill Avenue, stop 4565","53.2813421956444","-6.15515430522703"
"8250DB004566","IADT Dun Laoghaire, stop 4566","53.2819240750061","-6.15209971767419"
"8250DB004567","Glenageary Road, stop 4567","53.2829289189039","-6.14734698810458"
"8250DB004568","Kill Avenue, stop 4568","53.2827840372548","-6.14727826661721"
"8250DB004569","IADT Dun Laoghaire, stop 4569","53.2816226985174","-6.15295258368444"
"8250DB004570","Holy Family Church, stop 4570","53.2808004680787","-6.15732224524732"
"8250DB004571","Stillorgan Park, stop 4571","53.2889790521839","-6.19487535807993"
"8250DB004582","Broadford Road, stop 4582","53.2812900029033","-6.26174216838386"
"8250DB004636","Galloping Green, stop 4636","53.2806915208119","-6.19011068952026"
"8250DB004637","Stillorgan Village, stop 4637","53.2891079405181","-6.19626492756448"
"8250DB004707","Llewellyn Park, stop 4707","53.2824167704789","-6.26258128753827"
"8250DB004708","Llewellyn Close, stop 4708","53.283922448346","-6.26536983051985"
"8250DB004712","Llewellyn Park, stop 4712","53.2829204379715","-6.26322075250276"
"8250DB004771","Sycamore Drive, stop 4771","53.2639263802843","-6.16821203890213"
"8250DB004772","Hainault Road, stop 4772","53.2616818893441","-6.17013681918188"
"8250DB004773","Leopardstown SC, stop 4773","53.2581778815134","-6.19677240550929"
"8250DB004779","St Raphaela's Road, stop 4779","53.2831787949921","-6.2089929753599"
"8250DB004830","Barnhill Road, stop 4830","53.2772540928633","-6.11446620773607"
"8250DB004847","Blackthorn Drive, stop 4847","53.2798151060856","-6.213047796856"
"8250DB004848","Maple Avenue, stop 4848","53.2778139098619","-6.218064987094"
"8250DB004981","Pearse Villas, stop 4981","53.2726650493676","-6.13759471676265"
"8250DB004983","Dun Laoghaire Stn, stop 4983","53.2940779011139","-6.13430786842441"
"8250DB004984","Burton Hall Road, stop 4984","53.2736568459135","-6.20339327021053"
"8250DB004987","Heather Lawn, stop 4987","53.2773584976878","-6.26334131935932"
"8250DB004988","Heather Lawn, stop 4988","53.2776523135229","-6.26314945579475"
"8250DB005032","Rosemount Estate, stop 5032","53.2954690929309","-6.24610426342307"
"8250DB005045","St Raphaela's Road, stop 5045","53.2835769574855","-6.20917129719242"
"8250DB005046","Valley Drive, stop 5046","53.245906183604","-6.13929661982719"
"8250DB005047","Valley Drive, stop 5047","53.2458119527354","-6.14016983992921"
"8250DB005090","Shanganagh Cemetery, stop 5090","53.2217038088661","-6.12176011528158"
"8250DB005105","Cluny Grove, stop 5105","53.2692087137512","-6.12753458592279"
"8250DB005106","Ballyogan Luas, stop 5106","53.254933393631","-6.18494839981258"
"8250DB005127","Cabinteely Bypass, stop 5127","53.2620155969702","-6.15040988277696"
"8250DB005128","Clonkeen Road, stop 5128","53.2655267044632","-6.15773927584592"
"8250DB005142","Sandyford Luas, stop 5142","53.2776744715676","-6.2051742301153"
"8250DB005143","Blackthorn Green, stop 5143","53.2756669550565","-6.22779626138928"
"8250DB005168","Kerrymount Avenue, stop 5168","53.259635341842","-6.17735933034969"
"8250DB006006","Kilcross Road, stop 6006","53.2698660357998","-6.22877089286033"
"8250DB006007","Kilcross Road, stop 6007","53.2697615820768","-6.22900010899074"
"8250DB006082","Greythorn Park, stop 6082","53.2807965881579","-6.1374060725536"
"8250DB006103","St Kevin's Villas, stop 6103","53.2809987930669","-6.13826712348334"
"8250DB006196","Rockview Road, stop 6196","53.2667311725193","-6.24165876957448"
"8250DB006197","Rockview Road, stop 6197","53.2666871424475","-6.24172054473429"
"8250DB006198","Sandyford View, stop 6198","53.2694758989446","-6.23944709814248"
"8250DB006199","Rockview, stop 6199","53.2691816301114","-6.24082354938555"
"8250DB006200","Rockview, stop 6200","53.2693042935874","-6.24060861085677"
"8250DB006201","Sandyford View, stop 6201","53.2695722754341","-6.23927821374655"
"8250DB007041","Lanestown, stop 7041","53.4810773594928","-6.19094799634825"
"8250DB007056","Somerton, stop 7056","53.2735313073473","-6.14761850492034"
"8250DB007057","Stillorgan Luas, stop 7057","53.2801060992685","-6.21027623488937"
"8250DB007323","Wyattville Road, stop 7323","53.2563464456866","-6.1269723684034"
"8250DB007324","The View, stop 7324","53.2483178438623","-6.18199153293182"
"8250DB007360","The Park, stop 7360","53.2514465109384","-6.18203870352906"
"8250DB007362","Clonkeen Road, stop 7362","53.265939431743","-6.15769154664816"
"8250DB007372","Carrickmines Luas, stop 7372","53.2544603788724","-6.17222867071437"
"8250DB007373","Carrickmines Luas, stop 7373","53.2548291203035","-6.1722429240574"
"8250DB007393","Marsham Court, stop 7393","53.2844772996069","-6.21106843474645"
"8250DB007394","Lakelands Lawn, stop 7394","53.2846665704057","-6.2177048367238"
"8250DB007472","Killiney SC, stop 7472","53.2670680823354","-6.13662362130875"
"8250DB007553","Park Pointe SC, stop 7553","53.2824965122246","-6.14208645408386"
"8250DB007554","Park Pointe SC, stop 7554","53.2827419676657","-6.14399554024941"
"8250DB007556","The Elms, stop 7556","53.2480439849055","-6.12315403365151"
"8250DB007634","Cabinteely Court, stop 7634","53.2681990967625","-6.14979811853391"
"8250DB007635","Cabinteely Court, stop 7635","53.268596645804","-6.1499308802088"
"8250DB007636","Mackintosh Park, stop 7636","53.275966626376","-6.1557007515603"
"8250DB007637","Clonkeen Crescent, stop 7637","53.2768569207777","-6.15689207495863"
"8250DB007639","Brides Glen Luas, stop 7639","53.2413989701175","-6.14307322913931"
"8250DB007640","Cherrywood Bus Pk, stop 7640","53.2433483504797","-6.14069624331021"
"8250DB007651","Amgen, stop 7651","53.2716014149832","-6.151840303924"
"8250DB007666","Barnhill Road, stop 7666","53.2767852360489","-6.12006532743179"
"8250DB007716","Dundrum Town Centre, Stop 7716","53.2870781788166","-6.24332816275612"
"8250DB007717","Dundrum South, stop 7717","53.2854051614177","-6.24141697987198"
"8250DB007718","Ballinteer Road, stop 7718","53.2889826687033","-6.2444800116856"
"8250DB007719","Taney Park, stop 7719","53.2920902764858","-6.2424924549801"
"8250DB007720","Sydenham Road, stop 7720","53.2900691729131","-6.23953037088963"
"8250GD10091","Taney Grove, stop 10091","53.2925317320479","-6.23101345535386"
"8250GD10092","Mount Anville School, stop 10092","53.2943285502775","-6.22189311460216"
"8250GD10093","Deerpark Road, stop 10093","53.2966309044867","-6.22017718565678"
"8250GD10096","Deerpark Road, stop 10096","53.2957993520529","-6.21986671003359"
"8250GD10097","Mount Anville School, stop 10097","53.2932082086661","-6.22451989510429"
"8250GD10098","Taney Road, stop 10098","53.2922678100669","-6.23139938821423"
"8250GD10103","Wyckham Way, stop 10103","53.2828561940472","-6.24288645268744"
"8250GD10104","Ballintyre Grove, stop 10104","53.2742709637042","-6.25748361144245"
"8250GD10155","Ballintyre Grove, stop 10155","53.2743178493102","-6.2563870897848"
"8250GD10156","Wyckham Way, stop 10156","53.2829315904425","-6.24312332329703"
"8250GD10158","Taney Crescent, stop 10158","53.2916064975184","-6.23651199014193"
"8250GD10159","Stoney Road, stop 10159","53.2915318601379","-6.23693508701984"
"8250GD10160","Taney Park, stop 10160","53.2920701772587","-6.24295831023334"
"8260B102091","Barberstown Road, stop 102091","53.3168605226123","-6.60644039719255"
"8260B102101","Irishtown Upper, stop 102101","53.3122921361162","-6.65236139421748"
"8260B1025301","Curryhills, stop 102531","53.2886594091657","-6.73994875585742"
"8260B1025401","Milltown, stop 102541","53.2047397520432","-6.86028087505199"
"8260B1025601","Downings North, stop 102561","53.2872943156544","-6.7745449891313"
"8260B1025701","Straffan, stop 102571","53.3185477075302","-6.61858815076201"
"8260B1025801","Baybush, stop 102581","53.320242002529","-6.62911552958706"
"8260B1025901","Baybush, stop 102591","53.3203589720496","-6.62912679050891"
"8260B1026001","Irishtown Upper, stop 102601","53.313706889009","-6.64871497226967"
"8260B1026101","Brooklands, stop 102611","53.2964092447195","-6.67953437599049"
"8260B1026301","Clane, stop 102631","53.29051617625","-6.68793587350201"
"8260B1026401","Clane Hospital, stop 102641","53.2900774328416","-6.70039879652521"
"8260B1026501","Allen, stop 102651","53.2419292538766","-6.85265584741902"
"8260B1026601","Curryhills, stop 102661","53.2887124108041","-6.74071213585411"
"8260B1026701","Kilmeague, stop 102671","53.2510830161172","-6.8401078558622"
"8260B1026801","Downings North, stop 102681","53.2874354987988","-6.77341607531143"
"8260B1026901","Cross of Brockagh, stop 102691","53.2864306246533","-6.79919632580236"
"8260B1027001","Coill Dubh, stop 102701","53.2919675736638","-6.81815085066376"
"8260B1027101","Allenwood, stop 102711","53.2840095895917","-6.86021212908105"
"8260B1027201","Shee Bridge, stop 102721","53.2832999175709","-6.8782570726765"
"8260B1027301","Lullymore Cross, stop 102731","53.3102217230507","-6.92359015910499"
"8260B1027401","Carbury Mushroom, stop 102741","53.318819268225","-6.92720113852172"
"8260B1027501","Windmill Cross, stop 102751","53.3343963500159","-6.93141975353168"
"8260B1027601","Dreenane Park, stop 102761","53.3369065076619","-6.93574151210472"
"8260B1027701","Robertstown, stop 102771","53.2694337549371","-6.8152343293299"
"8260B1027801","Ashgrove, stop 102781","53.3420261268218","-6.94448920874036"
"8260B1030001","Milltown, stop 103001","53.204705814466","-6.86049134539325"
"8260B1031901","High Road Gap, stop 103191","53.3463461204054","-6.9994410434309"
"8260B1032001","Newbury Cross, stop 103201","53.3462678782944","-6.95159341499394"
"8260B1032101","Derrinturn, stop 103211","53.3397152951889","-6.9403116480613"
"8260B1032301","Lullymore Cross, stop 103231","53.3141268741815","-6.9250977048745"
"8260B1032501","Moore's Cottage, stop 103251","53.3051734038779","-6.91396433338857"
"8260B1037501","St Brigid's Church, stop 103751","53.2492802108714","-6.58876718049516"
"8260B1037601","Kill, stop 103761","53.2480414557816","-6.59193977992808"
"8260B1037701","The Gables, stop 103771","53.2461298619021","-6.59598833331132"
"8260B1037901","Naas Odeon Cinema, stop 103791","53.2311064768183","-6.64054781490405"
"8260B1038001","Roseville, stop 103801","53.2274177496445","-6.64732967492022"
"8260B1038101","St Corban's Cemetery, stop 103811","53.2256491831854","-6.65068033829214"
"8260B1038201","St Corban's Place, stop 103821","53.221815985515","-6.65665628648024"
"8260B1038301","Kildare Co Co, stop 103831","53.2159427667171","-6.67232266420701"
"8260B1038401","Primrose Garden, stop 103841","53.2140458501857","-6.68199387228328"
"8260B1038501","Southern Link Park, stop 103851","53.2118397874093","-6.69715339328673"
"8260B1038601","Newhall Retail Park, stop 103861","53.2104907971262","-6.70532386783025"
"8260B1038701","Toughers Ind Estate, stop 103871","53.2073014386321","-6.74407356178404"
"8260B1038801","Willowbrook Home, stop 103881","53.2021432084147","-6.75441796425806"
"8260B1038901","Great Connell, stop 103891","53.1851623462903","-6.78546373734592"
"8260B1039001","St Conleth's Church, stop 103901","53.183269773102","-6.79114289154738"
"8260B1039101","Riverbank Theatre, stop 103911","53.1820035988429","-6.79479917284845"
"8260B1039201","Newbridge, stop 103921","53.1805392645473","-6.79753319619141"
"8260B1039301","Edward Street, stop 103931","53.1779498071519","-6.80100154976419"
"8260B1039401","Moorefield Road, stop 103941","53.1741788605297","-6.80586357467821"
"8260B1039501","Green Road, stop 103951","53.1693862708668","-6.80924232784757"
"8260B1039601","St Brigid's Hospice, stop 103961","53.1572326964381","-6.81714482623019"
"8260B1039701","Curragh, stop 103971","53.1471222970893","-6.82996514124559"
"8260B1039801","Orchard Park, stop 103981","53.1439818703184","-6.83508803797418"
"8260B104001","Kildare, stop 104001","53.1568549945854","-6.91038476630496"
"8260B1040201","Curragh Road, stop 104021","53.1548381592728","-6.90313933115053"
"8260B1040301","French Furze Road, stop 104031","53.1536818668902","-6.89279248782274"
"8260B1040401","Maddenstown Terrace, stop 104041","53.143336102745","-6.85936602288688"
"8260B1040601","Orchard Park, stop 104061","53.1436627818177","-6.83554511480378"
"8260B1040701","Curragh, stop 104071","53.1471601473284","-6.83015845321942"
"8260B1040801","St Brigid's Hospice, stop 104081","53.1574124023658","-6.81713988594894"
"8260B1040901","Green Road, stop 104091","53.1693070478464","-6.80940904855006"
"8260B1041001","Newbridge Retail, stop 104101","53.176630413342","-6.80296812881823"
"8260B1041101","Newbridge, stop 104111","53.180534053254","-6.79790736569165"
"8260B1041201","Riverbank Theatre, stop 104121","53.1820518534895","-6.79512697260495"
"8260B1041301","St Conleth's Church, stop 104131","53.1834916698964","-6.79086733552205"
"8260B1041401","Great Connell, stop 104141","53.1846687838753","-6.78730309685549"
"8260B1041501","Willowbrook Home, stop 104151","53.2023083799217","-6.75474248405773"
"8260B1041601","Toughers Ind Estate, stop 104161","53.2072323994235","-6.745198355706"
"8260B1041801","Southern Link Park, stop 104181","53.2122184167991","-6.6956147457708"
"8260B1041901","Fire Station, stop 104191","53.216228184027","-6.66970843270614"
"8260B1042001","Naas Poplar Square, stop 104201","53.2196822454929","-6.66112565578662"
"8260B1042101","St Corban's Place, stop 104211","53.2220056755188","-6.65674020377438"
"8260B1042201","St Corban's Cemetery, stop 104221","53.225942284799","-6.65037158293054"
"8260B1042301","Roseville, stop 104231","53.2274921753151","-6.64755199252545"
"8260B1042401","Nass Ind Estate, stop 104241","53.2321675351496","-6.63901627655513"
"8260B1042501","Johnstown, stop 104251","53.2362877734108","-6.62369517826656"
"8260B1042601","The Gables, stop 104261","53.2462346748498","-6.59573017042129"
"8260B1042701","Kill, stop 104271","53.2482563726137","-6.59187278334318"
"8260B1042801","St Brigid's Church, stop 104281","53.249057609508","-6.58970358894013"
"8260B1042901","Castlewarden, stop 104291","53.2558469800432","-6.55398959540971"
"8260B1043101","Shee Bridge, stop 104311","53.2833626736252","-6.87824043234141"
"8260B1043601","Firmount Cross, stop 104361","53.2895253674434","-6.71664463717234"
"8260B1043801","Richardstown, stop 104381","53.3064566707631","-6.66252361989321"
"8260B1045501","Ovidstown, stop 104551","53.3174199663562","-6.63854161381728"
"8260B1045801","Barberstown Cross, stop 104581","53.3239861694117","-6.60553268805346"
"8260B1046601","New Road, stop 104661","53.3177794636932","-6.6174422428557"
"8260B1047001","Ashgrove, stop 104701","53.3422068973485","-6.94460488253161"
"8260B1047101","Dreenane Park, stop 104711","53.3367310977226","-6.93522034136841"
"8260B1047201","Windmill Cross, stop 104721","53.3336019768185","-6.9300282670178"
"8260B1047301","Kilkeashin Lane, stop 104731","53.3278530289559","-6.92635900904327"
"8260B1047401","Kennedys Bridge, stop 104741","53.2874851354516","-6.89430046646635"
"8260B1047501","Barrington Court, stop 104751","53.2880824993843","-6.75691413021671"
"8260B1047601","Prosperous Church, stop 104761","53.288345673218","-6.75027707983447"
"8260B1047701","Clane Hospital, stop 104771","53.2901774083044","-6.70050075785304"
"8260B1047801","Clane Garda Station, stop 104781","53.2935170850575","-6.68539881081425"
"8260B1047901","Brooklands, stop 104791","53.2968358562133","-6.67910116695528"
"8260B1048001","Straffan, stop 104801","53.3128146198274","-6.60862821920721"
"8260B1048101","St Wolstan's School, stop 104811","53.3352653448647","-6.56159000616107"
"8260B105211","Barrington Court, stop 105211","53.2879727270537","-6.75759225066986"
"8260B1056401","Suncroft, stop 105641","53.107914499603","-6.8611548864061"
"8260B1056501","Brownstown, stop 105651","53.13908989737","-6.83942035971296"
"8260B105741","Rathangan, stop 105741","53.2207129004216","-6.99325203332249"
"8260B1057501","Newhall Retail Park, stop 105751","53.210935647471","-6.70490622024099"
"8260B105931","Ballyshannon NS, stop 105931","53.0874493749643","-6.81513300827563"
"8260B105981","Kilmead, stop 105981","53.0358394406158","-6.90501367642189"
"8260B1319001","High Road Gap, stop 131901","53.3460960355018","-6.99962712177869"
"8260B1319501","Johnstown, stop 131951","53.2356483241478","-6.6251388349323"
"8260B1319901","Newbury Cross, stop 131991","53.3466254306731","-6.95239565898764"
"8260B1320701","Derrinturn, stop 132071","53.3392429867417","-6.93975274025002"
"8260B1323001","Maddenstown Terrace, stop 132301","53.1432366901656","-6.85930886533522"
"8260B1323201","Killinagh Lower, stop 132321","53.3050843695984","-6.91405661851773"
"8260B1323901","Kennedys Bridge, stop 132391","53.2879865559312","-6.89506743267673"
"8260B1324001","Kilmead, stop 132401","53.0358677700819","-6.90516206525789"
"8260B1324501","Allenwood, stop 132451","53.2838667545304","-6.86219552511081"
"8260B1324901","Brownstown, stop 132491","53.1390090288092","-6.83942253952593"
"8260B1326101","Coill Dubh, stop 132611","53.2918772768887","-6.8181083436982"
"8260B1326401","Kilcullen, stop 132641","53.1300346835753","-6.74590944236107"
"8260B1326901","Carnalway, stop 132691","53.1499473387204","-6.72015278188513"
"8260B1327901","Cross of Brockagh, stop 132791","53.286337374012","-6.79975386246707"
"8260B1329101","Two Mile House, stop 132911","53.1635835923967","-6.69463732893583"
"8260B1329501","Killashee, stop 132951","53.1945849243879","-6.67530244740506"
"8260B1330101","St Farnan's Church, stop 133011","53.2882025117159","-6.75119617381477"
"8260B1331301","Firmount Cross, stop 133131","53.2893559478852","-6.71676970758031"
"8260B1332101","Clane Garda Station, stop 133211","53.2932791273294","-6.68582613175036"
"8260B1334001","Castlewarden, stop 133401","53.2559045194458","-6.55428740778605"
"8260B1334301","Richardstown, stop 133431","53.3064273621627","-6.66231446373289"
"8260B1335601","Ovidstown, stop 133561","53.3172048537128","-6.63859348749017"
"8260B1337901","St Brigid's Church, stop 133791","53.3128175944099","-6.60888324988344"
"8260B1338401","Barberstown Road, stop 133841","53.3169923072995","-6.60618095137851"
"8260B1338501","Barberstown Cross, stop 133851","53.3238082374303","-6.60568860372164"
"8260B1340401","St Wolstan's School, stop 134041","53.3350878340323","-6.56177616427242"
"8260B1352601","Japanese Gardens, stop 135261","53.1441037902722","-6.9008567262073"
"8260B1355802","Duke Street, stop 135582","52.9914608999955","-6.98756916038541"
"8260B136361","Killashee, stop 136361","53.1946860854498","-6.67550885361632"
"8260B136371","Two Mile House, stop 136371","53.1635863777644","-6.69489148312694"
"8260B136381","Carnalway, stop 136381","53.1500472978746","-6.72025446260592"
"8260B136391","Luí Na Gréine, stop 136391","53.1419684276596","-6.73466500845"
"8260B136401","Luí Na Gréine, stop 136401","53.1420268760127","-6.73424475601892"
"8260B136421","Leinster Street, stop 136421","52.9922230927815","-6.98419984414578"
"8260B136431","Kilcullen, stop 136431","53.130107980523","-6.74604179964514"
"8260B1369901","Moorefield Crescent, stop 136991","53.1730831168052","-6.80773387886407"
"8260B1370001","Naas, stop 137001","53.2176468530645","-6.66395934288106"
"8260B1370301","Naas, stop 137031","53.2176089002865","-6.66378083495293"
"8260B1408801","Ballyshannon NS, stop 140881","53.0868791348112","-6.81653701372008"
"8260B1524001","Kilmeague, stop 152401","53.251134886555","-6.83989665564684"
"8260B1524101","Robertstown, stop 152411","53.269400048159","-6.81546014029525"
"8260B1552601","Kildare, stop 155261","53.1567396863007","-6.91055216382682"
"8260B5579001","Suncroft, stop 557901","53.1082692046365","-6.8606526349838"
"8260B5584001","Rathangan, stop 558401","53.2206601242362","-6.99338804287607"
"8260B5584101","Allen, stop 558411","53.2393404546721","-6.85542173305563"
"8260DB007083","Oakleigh, stop 7083","53.3353676155429","-6.5529526473976"
"8260DB007084","English Row, stop 7084","53.337876791551","-6.540539225826"
"8260DB007085","English Row, stop 7085","53.3379541587611","-6.54025127147071"
"8260DB007086","Celbridge Abbey, stop 7086","53.3352955608997","-6.55294007114863"
"8260GD10267","Carbury, stop 10267","53.3533658365583","-6.96370656344489"
"8260GD10268","Carbury, stop 10268","53.3532844459133","-6.9636484531383"
"8260GD10386","Japanese Gradens, stop 10386","53.1439254580366","-6.90101076014909"
"8260GD10387","Lidl RDC, stop 10387","53.1935545637546","-6.76686385736614"
"8260GD10388","Lidl RDC, stop 10388","53.1934010370766","-6.76766143351174"
"8310B1009601","Alderbrook, stop 100961","53.5049015827752","-6.39192099950634"
"8310B1009801","Ashbourne CU, stop 100981","53.5137904376454","-6.40197375139124"
"8310B1009901","St John's Wood Court, stop 100991","53.5163652902167","-6.40634045857458"
"8310B1010001","Ashbourne Retail Pk, stop 101001","53.5250930435398","-6.41518317539218"
"8310B1010401","St John's Wood Court, stop 101041","53.5166715224633","-6.40638928441556"
"8310B1010501","Ashbourne CU, stop 101051","53.5134890686419","-6.40094465865116"
"8310B101061","Ninemile Stone, stop 101061","53.4972602661955","-6.38512588572768"
"8310B1012201","Bourne Avenue, stop 101221","53.5086675107602","-6.39593968689369"
"8310B1018501","Bourne Avenue, stop 101851","53.5086728532788","-6.39566809824018"
"8310B103381","Enfield, stop 103381","53.4140677623086","-6.82782529777324"
"8310B106521","Hickey's Lane, stop 106521","53.4998099208515","-6.38757647087924"
"8310B106531","Hickey's Lane, stop 106531","53.4997789056434","-6.38727616974162"
"8310B1332301","Enfield, stop 133231","53.4139839636512","-6.82844435400106"
"8310B133631","Ashbourne, stop 133631","53.5116700407264","-6.39799752968633"
"8310B133941","Ninemile Stone, stop 133941","53.4973178289806","-6.38539501277491"
"8310B1357301","Ashbourne Retail Pk, stop 135731","53.5245165060806","-6.41440532064318"
"8310B1370901","Ashbourne Comm Coll, stop 137091","53.5036524357413","-6.39059643517488"
"8310B1524201","Ashbourne, stop 152421","53.5112848690619","-6.39742401808694"
"8310DB003328","Clonee Village, stop 3328","53.4104810118978","-6.44247719736312"
"8310DB003329","Loughsallagh, stop 3329","53.4139640720478","-6.44905927880425"
"8310DB003330","Clonee Sawmills, stop 3330","53.4149242899114","-6.45240917797432"
"8310DB003331","Dunboyne Station, stop 3331","53.415954735406","-6.46260174067545"
"8310DB003332","Dunboyne NS, stop 3332","53.4183788913464","-6.47291032928897"
"8310DB003333","Dunboyne Village, stop 3333","53.419502523402","-6.47432945787378"
"8310DB003334","Dunboyne NS, stop 3334","53.4180549772473","-6.4714776356452"
"8310DB003335","Mill View, stop 3335","53.4160251365625","-6.45969568841962"
"8310DB003336","Clonee Sawmills, stop 3336","53.4149631651351","-6.45194141009732"
"8310DB003337","Loughsallagh, stop 3337","53.4140798813531","-6.44897984739847"
"8310DB003338","Clonee Village, stop 3338","53.4106014848004","-6.44206665519184"
"8310DB003339","Summerseat Court, stop 3339","53.4103970389321","-6.43742609869673"
"8310DB003351","St Peter's College, stop 3351","53.4170352983603","-6.46835487473712"
"8310DB003352","St Peter's College, stop 3352","53.4170777086963","-6.46815777247699"
"8320B1028001","Dublin Road, stop 102801","53.3469738129495","-7.03195719307852"
"8320B1028101","Colonel Perry Street, stop 102811","53.3441840885796","-7.04376434348563"
"8320B1028201","Edenderry Town Hall, stop 102821","53.3431316057812","-7.05039557796289"
"8320B1028301","St Mary's School, stop 102831","53.3407574195267","-7.05927810112891"
"8320B1028401","St Teresa's Terrace, stop 102841","53.3412445631095","-7.06752661086114"
"8320B1028501","Cokery Lane, stop 102851","53.3411679890812","-7.07385033268172"
"8320B1028601","Ballybryan School, stop 102861","53.3558207144624","-7.1491677118519"
"8320B1028701","St Peter's Church, stop 102871","53.3491439400889","-7.19994619170928"
"8320B1028901","Daingean Church, stop 102891","53.2942542655392","-7.29308780890808"
"8320B1029001","Riverview Park, stop 102901","53.2671386747395","-7.46552097561966"
"8320B1029101","Ballybryan School, stop 102911","53.3558734520547","-7.14900142139458"
"8320B1031701","St Mary's School, stop 103171","53.3408290685782","-7.05924649089893"
"8320B1046701","Fr Kearns Street, stop 104671","53.3432702373512","-7.04974674464148"
"8320B1046801","Colonel Perry Street, stop 104681","53.3444313547702","-7.04321816540278"
"8320B1046901","Dublin Road, stop 104691","53.3472773755495","-7.03171001309825"
"8320B1048401","Riverview Park, stop 104841","53.2668611339604","-7.46375557845363"
"8320B1048501","Ballinagar, stop 104851","53.2663046434429","-7.33700560433771"
"8320B1048601","Daingean Church, stop 104861","53.2943181474952","-7.29325175500522"
"8320B1048701","Midway Park Hotel, stop 104871","53.2966896447855","-7.29154750675355"
"8320B1048801","St Peter's Church, stop 104881","53.3493042792533","-7.19973291713348"
"8320B1048901","Rhode, stop 104891","53.3503447566011","-7.19675452355772"
"8320B1049001","St Patrick's Road, stop 104901","53.3415362957742","-7.07267103566731"
"8320B1049101","St Teresa's Terrace, stop 104911","53.3412534949362","-7.06637012367766"
"8320B1313901","Ballinagar, stop 131391","53.2661781664199","-7.33688763928696"
"8320B1314401","Midway Park Hotel, stop 131441","53.2967424043464","-7.29135162168702"
"8320B1318201","Rhode, stop 131821","53.3503515184495","-7.19642396010584"
"8320B135651","Tullamore, stop 135651","53.275299225414","-7.4881039990534"
"8320B1359601","Edenderry SC, stop 135961","53.3434929724406","-7.05857213287608"
"8320B135981","Tullamore College, stop 135981","53.2751006174064","-7.48789646714569"
"8350DB002113","St Peter's Road, stop 2113","53.2095858297405","-6.11824770921655"
"8350DB002997","Florence Road, stop 2997","53.2031235167519","-6.10975835625962"
"8350DB003045","Church Road, stop 3045","53.197430826872","-6.10900600524937"
"8350DB003442","Ballydonagh Road, stop 3442","53.145518581686","-6.12528109553306"
"8350DB004095","Enniskerry Village, stop 4095","53.1929253808302","-6.17044747596771"
"8350DB004103","Kilgarron Park, stop 4103","53.192750480833","-6.18191919449171"
"8350DB004104","Parknasillogue Ct, stop 4104","53.1932683434485","-6.18581852187908"
"8350DB004105","Hill View, stop 4105","53.1953536954809","-6.19173234081739"
"8350DB004106","Kilmolin, stop 4106","53.1962245286529","-6.19284818825578"
"8350DB004108","Enniskerry Golf Club, stop 4108","53.1918778643131","-6.20081336966603"
"8350DB004109","Bridge Road, stop 4109","53.1955337487246","-6.19590064960508"
"8350DB004110","Kilmolin, stop 4110","53.1959729177419","-6.19226007309091"
"8350DB004111","Hill View, stop 4111","53.1950960491494","-6.19133907152751"
"8350DB004112","Parknasillogue Ct, stop 4112","53.1932592298826","-6.18522024407466"
"8350DB004113","Kilgarron Park, stop 4113","53.1928212004091","-6.18184136972954"
"8350DB004129","Old Connaught Avenue, stop 4129","53.2108556391326","-6.11726373758896"
"8350DB004130","Castle Street, stop 4130","53.2072817956956","-6.11351284781385"
"8350DB004131","Dwyer Park, stop 4131","53.2065671431512","-6.11152310823596"
"8350DB004132","Bray Main Street, stop 4132","53.2023004727949","-6.11000415983853"
"8350DB004134","Church Road, stop 4134","53.1975733556208","-6.10892488943039"
"8350DB004135","Lauderdale, stop 4135","53.19464638278","-6.10686852204679"
"8350DB004136","Putland Road, stop 4136","53.1922528970764","-6.10501339216555"
"8350DB004137","Boghall Road, stop 4137","53.1886313684098","-6.10280861847271"
"8350DB004138","Cherry Tree Drive, stop 4138","53.1884473363395","-6.10592948121483"
"8350DB004139","Woodbrook Lawn, stop 4139","53.1882444743904","-6.11183463374646"
"8350DB004140","Oldcourt Park, stop 4140","53.1879373089479","-6.11627773608257"
"8350DB004142","Oldcourt, stop 4142","53.1887905676123","-6.12135841691557"
"8350DB004143","Oldcourt Park, stop 4143","53.1880640009227","-6.11576337478944"
"8350DB004144","Woodbrook Lawn, stop 4144","53.1883673813191","-6.11164965247221"
"8350DB004145","Cherry Tree Drive, stop 4145","53.1885548855395","-6.10590977529944"
"8350DB004146","Vevay Road, stop 4146","53.1887639579836","-6.10266807743324"
"8350DB004147","Wolfe Tone Square, stop 4147","53.1905845528891","-6.10749647261206"
"8350DB004148","Wolfe Tone Square, stop 4148","53.1917841549188","-6.10492930326017"
"8350DB004149","Putland Road, stop 4149","53.1935632830355","-6.10658697988633"
"8350DB004150","Vevay Road, stop 4150","53.200116633706","-6.1105942403025"
"8350DB004151","Bray Main Street, stop 4151","53.2018686482646","-6.11054710423244"
"8350DB004153","Cornerstone Church, stop 4153","53.2048906454772","-6.1095308647775"
"8350DB004154","St Cronan's Road, stop 4154","53.2066340780954","-6.11234359174607"
"8350DB004156","Quinsborough Road, stop 4156","53.2049673829616","-6.10361400629363"
"8350DB004167","Bray Station, stop 4167","53.2046049408552","-6.10117481374353"
"8350DB004168","Bray Station, stop 4168","53.2044316558395","-6.10101779854804"
"8350DB004169","Bray Station, stop 4169","53.2042872251644","-6.10097927345382"
"8350DB004170","Methodist Church, stop 4170","53.203483770056","-6.10697299154263"
"8350DB004175","St Fergal's Church, stop 4175","53.189045835275","-6.12615109959763"
"8350DB004176","O'Byrne Road, stop 4176","53.1918652129779","-6.10720060085043"
"8350DB004177","Springfield Cemetery, stop 4177","53.1860998442124","-6.12915269137745"
"8350DB004178","Ballywaltrim Heights, stop 4178","53.1880862794519","-6.12743503167698"
"8350DB004183","Upper Dargle Road, stop 4183","53.2070648365618","-6.11457038804181"
"8350DB004184","Sutton Road, stop 4184","53.2051712642178","-6.1193094719709"
"8350DB004185","Dargle Villas, stop 4185","53.2031998229907","-6.12197067854453"
"8350DB004186","Bray Commons, stop 4186","53.1982179953228","-6.13097497273543"
"8350DB004187","Silverbridge, stop 4187","53.1927505420626","-6.13655588003485"
"8350DB004189","Kilbride Lane, stop 4189","53.1901875201142","-6.14165058572408"
"8350DB004190","Cookstown, stop 4190","53.1920314114499","-6.15909627607288"
"8350DB004192","Cookstown, stop 4192","53.1914700681011","-6.15825229952735"
"8350DB004194","Kilbride Lane, stop 4194","53.1901254576095","-6.14112947474715"
"8350DB004196","Upper Dargle Road, stop 4196","53.1988061369377","-6.13065000827412"
"8350DB004199","Sunnybank Court, stop 4199","53.2070934408301","-6.11467393297076"
"8350DB004201","Old Connaught Avenue, stop 4201","53.2111253457478","-6.11783585565894"
"8350DB004207","St Andrew's NS, stop 4207","53.1893993141628","-6.1024903675393"
"8350DB004208","Briar Wood, stop 4208","53.187070773139","-6.09907650912911"
"8350DB004209","Kilruddery Cottages, stop 4209","53.1771366283429","-6.0950274925041"
"8350DB004210","Lord Meaths Gate, stop 4210","53.1743358512901","-6.09525632198282"
"8350DB004211","Rathdown Road, stop 4211","53.1721090230334","-6.09315594267656"
"8350DB004212","Windgates North, stop 4212","53.1668112416013","-6.08733304720089"
"8350DB004213","Windgates, stop 4213","53.1639418866595","-6.0855312591244"
"8350DB004214","Redford, stop 4214","53.1556390095779","-6.0823417898238"
"8350DB004215","Redford Park, stop 4215","53.1522084495754","-6.08141811338985"
"8350DB004216","Chapel Road, stop 4216","53.1499888568674","-6.0797826792352"
"8350DB004222","Greystones Village, stop 4222","53.1452005347374","-6.06385021235674"
"8350DB004224","Greystones Station, stop 4224","53.1439507394024","-6.06106599409456"
"8350DB004225","Mill Road, stop 4225","53.1395325057134","-6.06077172768607"
"8350DB004226","St Vincent's Road, stop 4226","53.1383406316823","-6.06375518099019"
"8350DB004227","Burnaby Park, stop 4227","53.1353796939109","-6.06629477399428"
"8350DB004228","Tennis Club, stop 4228","53.1326016094274","-6.07180001208226"
"8350DB004229","Carrig Villas, stop 4229","53.1325214557997","-6.07573432171395"
"8350DB004230","Kilcoole Road, stop 4230","53.1331584913333","-6.07788795466592"
"8350DB004232","Delgany Wood, stop 4232","53.1324910771998","-6.08388107408484"
"8350DB004234","Health Centre, stop 4234","53.1326020357111","-6.09359083791645"
"8350DB004235","Delgany Golf Club, stop 4235","53.1303881398199","-6.10129581320622"
"8350DB004236","Drummin Gate Lodge, stop 4236","53.1243222875801","-6.10420810897597"
"8350DB004237","Killickabawn, stop 4237","53.1212708329134","-6.11015474078558"
"8350DB004238","Kilpedder Footbridge, stop 4238","53.111546867893","-6.10574122452146"
"8350DB004239","Glenview Park, stop 4239","53.1139668147743","-6.10756198823546"
"8350DB004240","Glen Of The Downs, stop 4240","53.1294923064162","-6.10374139119045"
"8350DB004241","Delgany Golf Club, stop 4241","53.130780192285","-6.10051632894636"
"8350DB004242","Health Centre, stop 4242","53.1326324629062","-6.09324573971656"
"8350DB004243","Chapel Road, stop 4243","53.1325613422558","-6.08993094968055"
"8350DB004244","Wendon Brook, stop 4244","53.1330304130276","-6.08109208786334"
"8350DB004277","Mill Road, stop 4277","53.132615189296","-6.07541627218735"
"8350DB004278","Tennis Club, stop 4278","53.1327710607666","-6.07171769441278"
"8350DB004279","Burnaby Park, stop 4279","53.1350997862663","-6.06677069139879"
"8350DB004280","Manor Avenue, stop 4280","53.1366898736855","-6.06560814223516"
"8350DB004281","St Vincent's Road, stop 4281","53.138467595904","-6.06382420907503"
"8350DB004282","Mill Road, stop 4282","53.1395101823526","-6.06105674847864"
"8350DB004283","Greystones Station, stop 4283","53.1439281723485","-6.06133610533178"
"8350DB004284","Greystones Village, stop 4284","53.1454088293756","-6.06449865030229"
"8350DB004289","Church Lane, stop 4289","53.1462163499678","-6.07772339688384"
"8350DB004290","Greystones SC, stop 4290","53.144558238436","-6.0757941744137"
"8350DB004291","Bellevue Road, stop 4291","53.1451383497488","-6.06887624531095"
"8350DB004292","Bellevue Road, stop 4292","53.1449560250609","-6.06927312747861"
"8350DB004293","Greystones SC, stop 4293","53.1446379170251","-6.07516271578145"
"8350DB004294","Church Lane, stop 4294","53.1463915940929","-6.07799962874184"
"8350DB004295","Chapel Road, stop 4295","53.1496545885972","-6.07967798315125"
"8350DB004296","Redford Park, stop 4296","53.1523834446996","-6.08167945651736"
"8350DB004297","Redford, stop 4297","53.1556168761306","-6.08264185061055"
"8350DB004299","Windgate Cottages, stop 4299","53.1629101370263","-6.08565196763242"
"8350DB004300","Windgate North, stop 4300","53.1667975983917","-6.08760289056277"
"8350DB004301","Rathdown Road, stop 4301","53.1723154870205","-6.0937002868762"
"8350DB004302","Lord Meaths Gate, stop 4302","53.1745023130682","-6.0955481516632"
"8350DB004303","Briar Wood, stop 4303","53.1873242699761","-6.09975367133243"
"8350DB004304","St Andrew's NS, stop 4304","53.1893031302272","-6.10265923441757"
"8350DB004416","Roseville Court, stop 4416","53.2083438702134","-6.11473880507392"
"8350DB004417","St Peter's Road, stop 4417","53.2092331572929","-6.11811344268945"
"8350DB004419","Raverty Villas, stop 4419","53.2068632420818","-6.11944496815721"
"8350DB004420","Maple Grove, stop 4420","53.2067081122934","-6.12214661557952"
"8350DB004421","Beech Road, stop 4421","53.2077834507561","-6.11965918707329"
"8350DB004422","Diamond Valley, stop 4422","53.2009631172513","-6.12777182294882"
"8350DB004533","Kilmacanogue, stop 4533","53.1695051592648","-6.13648641234374"
"8350DB004584","Diamond Valley, stop 4584","53.201047532632","-6.12742384653858"
"8350DB004650","Kilpeddar Grove, stop 4650","53.1109028921204","-6.10481349384655"
"8350DB004651","Garden Village, stop 4651","53.1011911796648","-6.10682359018231"
"8350DB004652","Coillte Offices, stop 4652","53.0971249236156","-6.11000375702038"
"8350DB004653","Newtownmountkennedy, stop 4653","53.0921962383169","-6.11208624700601"
"8350DB004654","Springfield Heights, stop 4654","53.088464163587","-6.10914411975296"
"8350DB004655","Newtown Business Ctr, stop 4655","53.0843459249522","-6.10509977861377"
"8350DB004656","Newcastle Hospital, stop 4656","53.0794899781303","-6.10046172584211"
"8350DB004657","Newcastle Hospital, stop 4657","53.0798354229216","-6.10126752038092"
"8350DB004658","Springfield Heights, stop 4658","53.0888497466871","-6.11021713799147"
"8350DB004659","Newtownmountkennedy, stop 4659","53.0918303260479","-6.11225158245053"
"8350DB004660","Coillte Offices, stop 4660","53.0977967081121","-6.10985483753376"
"8350DB004661","Garden Village, stop 4661","53.0996898040299","-6.108502423549"
"8350DB004844","Glencormack Road, stop 4844","53.1743757146269","-6.13928227932353"
"8350DB005088","Woodview Drive, stop 5088","53.1886580058669","-6.10957169089598"
"8350DB005089","Wolfe Tone Square, stop 5089","53.1903896846464","-6.10937577463751"
"8350DB005091","Ballywaltrim Heights, stop 5091","53.1879238915683","-6.12739721376408"
"8350DB005092","Springfield Cemetery, stop 5092","53.1858287286821","-6.12905974567307"
"8350DB005135","Kilruddery Cottages, stop 5135","53.1767923001089","-6.09541677764718"
"8350DB005139","Windgate Cottages, stop 5139","53.1617095881853","-6.0847781423529"
"8350DB005167","Woodview Drive, stop 5167","53.1886017385752","-6.10942451516789"
"8350DB006000","Kilmacanogue, stop 6000","53.1704672156918","-6.13650455201681"
"8350DB006019","Glen Of The Downs, stop 6019","53.1290328372351","-6.10423984562486"
"8350DB006138","Drake's Way, stop 6138","53.0807694770795","-6.10234598463396"
"8350DB006139","Bridge Road, stop 6139","53.1954526779126","-6.19588908691628"
"8350DB007279","Newtown Business Ctr, stop 7279","53.0850621871199","-6.10548632762131"
"8350DB007294","Cornerstone Church, stop 7294","53.2047244539015","-6.10925373679255"
"8350DB007295","Sutton Road, stop 7295","53.2052984334405","-6.11939372806532"
"8350DB007351","Chapel Road, stop 7351","53.1324814605606","-6.08999427600049"
"8350DB007369","Dargle Villas, stop 7369","53.2035385563813","-6.12179119224565"
"8350DB007461","Charlesland, stop 7461","53.1289319702713","-6.06280337209952"
"8350DB007462","Charlesland, stop 7462","53.1288008733297","-6.06248049204396"
"8350DB007522","Oldcourt, stop 7522","53.1881311334589","-6.11887313873819"
"8350DB007574","Southern Cross, stop 7574","53.1823486727912","-6.13010901593525"
"8350GD10395","Enniskerry Village, stop 10395","53.1925994572189","-6.17088041352803"
